longitude,latitude,OBJECTID,market_settlement_name,product_description,secondary_editor,editor,other_market_type_goods,market_type_goods,source,timestamp,market_name,market_days_monday,market_days_tuesday,market_days_wednesday,market_days_thursday,market_days_friday,market_days_saturday,market_days_sunday,total_market_days,wardcode,id,lat,lon
6.316060724,4.689818723,110081,Ogbia Town,Food Stuff Mixed Other,,racheal.olarewaju,Electronic,Food Stuff Mixed Other,eHA_Polio,2017/04/27 06:30:28+00,Ogbia Town Market,Yes,,,,Yes,,,2,BYSGBB05,110081,4.69,6.32
5.01569,7.00506,110082,Owena Egbeda,,,racheal.olarewaju,,,OSGOF,2019/02/27 06:32:04+00,Owena Egbeda Market,,,,,,,,,ODSIDNE05,110082,7.01,5.02
5.15882,7.01674,110083,Ayede,,,racheal.olarewaju,,,OSGOF,2019/02/27 06:32:04+00,Ayede Market,,,,,,,,,ODSIDNE08,110083,7.02,5.16
5.0945,7.14105,110084,Alade Idanre,,,racheal.olarewaju,,,OSGOF,2019/02/27 06:32:04+00,Alade Idanre Market,,,,,,,,,ODSIDNE01,110084,7.14,5.09
4.72367,7.16953,110085,General,,,racheal.olarewaju,,,OSGOF,2019/02/27 06:32:04+00,General Market,,,,,,,,,ODSIOU07,110085,7.17,4.72
5.06406,7.23497,110086,Aponmu Long,,,racheal.olarewaju,,,OSGOF,2019/02/27 06:32:04+00,Aponmu Long Market,,,,,,,,,ODSIDNE10,110086,7.23,5.06
5.11405,7.34852,110087,Ilaramoko,,,racheal.olarewaju,,,OSGOF,2019/02/27 06:32:04+00,Ilaramoko Market,,,,,,,,,ODSIDE07,110087,7.35,5.11
5.17158,7.36011,110088,Ijare,,,racheal.olarewaju,,,OSGOF,2019/02/27 06:32:04+00,Ijare Market,,,,,,,,,ODSIDE05,110088,7.36,5.17
5.17369,7.36511,110089,Araromi Omoladun,,,racheal.olarewaju,,,OSGOF,2019/02/27 06:32:04+00,Araromi Omoladun Market,,,,,,,,,ODSIDE05,110089,7.37,5.17
5.08498,7.38226,110090,Ero,,,racheal.olarewaju,,,OSGOF,2019/02/27 06:32:04+00,Ero Market,,,,,,,,,ODSIDE01,110090,7.38,5.08
5.0692,7.40105,110091,Isarun,,,racheal.olarewaju,,,OSGOF,2019/02/27 06:32:04+00,Isarun Market,,,,,,,,,ODSIDE10,110091,7.4,5.07
5.05665,7.41171,110092,Igbara Oke,,,racheal.olarewaju,,,OSGOF,2019/02/27 06:32:04+00,Igbara Oke Market,,,,,,,,,ODSIDE02,110092,7.41,5.06
5.14154,7.07776,110093,Apefon,,,racheal.olarewaju,,,OSGOF,2019/02/27 06:32:04+00,Apefon Market,,,,,,,,,ODSIDNE07,110093,7.08,5.14
4.74164,7.12063,110094,Asana Tatonmi,,,racheal.olarewaju,,,OSGOF,2019/02/27 06:32:04+00,Asana Tatonmi Market,,,,,,,,,ODSIOU10,110094,7.12,4.74
5.01216,7.26887,110095,Kolawole,,,racheal.olarewaju,,,OSGOF,2019/02/27 06:32:04+00,Kolawole Market,,,,,,,,,ODSIOU05,110095,7.27,5.01
5.15055,7.3453,110096,Ikota,,,racheal.olarewaju,,,OSGOF,2019/02/27 06:32:04+00,Ikota Market,,,,,,,,,ODSIDE06,110096,7.35,5.15
5.06666,7.4548,110097,Ibuji,,,racheal.olarewaju,,,OSGOF,2019/02/27 06:32:04+00,Ibuji Market,,,,,,,,,ODSIDE01,110097,7.45,5.07
4.85276,6.42275,110098,Igbogi I Camp,,,racheal.olarewaju,,,OSGOF,2019/02/27 06:32:04+00,Igbogi I Camp Market,,,,,,,,,ODSIAE05,110098,6.42,4.85
4.72558,6.43321,110099,Ode Erinje,,,racheal.olarewaju,,,OSGOF,2019/02/27 06:32:04+00,Ode Erinje Market,,,,,,,,,ODSPUP03,110099,6.43,4.73
4.89205,6.44235,110100,Sabome,,,racheal.olarewaju,,,OSGOF,2019/02/27 06:32:04+00,Sabome Market,,,,,,,,,ODSESO03,110100,6.44,4.89
5.12094,6.46329,110101,Ode Iyansan,,,racheal.olarewaju,,,OSGOF,2019/02/27 06:32:04+00,Ode Iyansan Market,,,,,,,,,ODSIRL10,110101,6.46,5.12
4.88949,6.47808,110102,Ode Omi,,,racheal.olarewaju,,,OSGOF,2019/02/27 06:32:04+00,Ode Omi Market,,,,,,,,,ODSIRL09,110102,6.48,4.89
4.7893,6.49242,110103,Ayeka,,,racheal.olarewaju,,,OSGOF,2019/02/27 06:32:04+00,Ayeka Market,,,,,,,,,ODSPUP01,110103,6.49,4.79
4.78996,6.49577,110104,Igbodigho,,,racheal.olarewaju,,,OSGOF,2019/02/27 06:32:04+00,Igbodigho Market,,,,,,,,,ODSPUP01,110104,6.5,4.79
4.69188,6.50283,110105,Ikoya Town,,,racheal.olarewaju,,,OSGOF,2019/02/27 06:32:04+00,Ikoya Town Market,,,,,,,,,ODSPUP06,110105,6.5,4.69
4.64016,6.52573,110106,Ilutitun,,,racheal.olarewaju,,,OSGOF,2019/02/27 06:32:04+00,Ilutitun Market,,,,,,,,,ODSPUP08,110106,6.53,4.64
4.74822,6.5491,110107,Farm Settlement,,,racheal.olarewaju,,,OSGOF,2019/02/27 06:32:04+00,Farm Settlement Market,,,,,,,,,ODSPUP12,110107,6.55,4.75
4.63807,6.57508,110108,Igbotako,,,racheal.olarewaju,,,OSGOF,2019/02/27 06:32:04+00,Igbotako Market,,,,,,,,,ODSPUP02,110108,6.58,4.64
5.05928,6.57722,110109,Atoranse Central,,,racheal.olarewaju,,,OSGOF,2019/02/27 06:32:04+00,Atoranse Central Market,,,,,,,,,ODSIRL07,110109,6.58,5.06
4.91192,6.65974,110110,Ipetu Camp,,,racheal.olarewaju,,,OSGOF,2019/02/27 06:32:04+00,Ipetu Camp Market,,,,,,,,,ODSODI02,110110,6.66,4.91
4.52534,6.67676,110111,Koseru,,,racheal.olarewaju,,,OSGOF,2019/02/27 06:32:04+00,Koseru Market,,,,,,,,,ODSODI07,110111,6.68,4.53
4.54022,6.68614,110112,Ifarapanu,,,racheal.olarewaju,,,OSGOF,2019/02/27 06:32:04+00,Ifarapanu Market,,,,,,,,,ODSODI07,110112,6.69,4.54
4.50954,6.72473,110113,Kajola Camp,,,racheal.olarewaju,,,OSGOF,2019/02/27 06:32:04+00,Kajola Camp Market,,,,,,,,,ODSODI09,110113,6.72,4.51
4.56668,6.72555,110114,Mile 49 Mobolorunduro,,,racheal.olarewaju,,,OSGOF,2019/02/27 06:32:04+00,Mile 49 Mobolorunduro Market,,,,,,,,,ODSODI09,110114,6.73,4.57
4.87987,6.75019,110115,Ore,,,racheal.olarewaju,,,OSGOF,2019/02/27 06:32:04+00,Ore Market,,,,,,,,,ODSODI10,110115,6.75,4.88
4.87203,6.79505,110116,Odigbo,,,racheal.olarewaju,,,OSGOF,2019/02/27 06:32:04+00,Odigbo Market,,,,,,,,,ODSODI08,110116,6.8,4.87
4.59108,6.82434,110117,Legere,,,racheal.olarewaju,,,OSGOF,2019/02/27 06:32:04+00,Legere Market,,,,,,,,,ODSODI09,110117,6.82,4.59
4.86133,6.82861,110118,Omifon,,,racheal.olarewaju,,,OSGOF,2019/02/27 06:32:04+00,Omifon Market,,,,,,,,,ODSODI08,110118,6.83,4.86
4.85419,6.89537,110119,Ajue,,,racheal.olarewaju,,,OSGOF,2019/02/27 06:32:04+00,Ajue Market,,,,,,,,,ODSODI04,110119,6.9,4.85
4.89739,6.90113,110120,Oro Kingdom,,,racheal.olarewaju,,,OSGOF,2019/02/27 06:32:04+00,Oro Kingdom Market,,,,,,,,,ODSODI04,110120,6.9,4.9
4.95692,6.98944,110121,Asanta Oja,,,racheal.olarewaju,,,OSGOF,2019/02/27 06:32:04+00,Asanta Oja Market,,,,,,,,,ODSOET01,110121,6.99,4.96
4.97138,7.1209,110122,Fagbo Oja,,,racheal.olarewaju,,,OSGOF,2019/02/27 06:32:04+00,Fagbo Oja Market,,,,,,,,,ODSOET04,110122,7.12,4.97
4.96439,7.16891,110123,Bolorunduro,,,racheal.olarewaju,,,OSGOF,2019/02/27 06:32:04+00,Bolorunduro Market,,,,,,,,,ODSOET02,110123,7.17,4.96
5.74813,7.52013,110124,Okore,,,racheal.olarewaju,,,OSGOF,2019/02/27 06:32:04+00,Okore Market,,,,,,,,,ODSANE12,110124,7.52,5.75
5.7507,7.52273,110125,Osele,,,racheal.olarewaju,,,OSGOF,2019/02/27 06:32:04+00,Osele Market,,,,,,,,,ODSANE11,110125,7.52,5.75
5.76347,7.52416,110126,Alapata New,,,racheal.olarewaju,,,OSGOF,2019/02/27 06:32:04+00,Alapata New Market,,,,,,,,,ODSANE06,110126,7.52,5.76
5.78342,7.52879,110127,Ugbe Akoko,,,racheal.olarewaju,,,OSGOF,2019/02/27 06:32:04+00,Ugbe Akoko Market,,,,,,,,,ODSANE07,110127,7.53,5.78
5.76616,7.53437,110128,Ikareakoko,,,racheal.olarewaju,,,OSGOF,2019/02/27 06:32:04+00,Ikareakoko Market,,,,,,,,,ODSANE04,110128,7.53,5.77
5.85232,7.53542,110129,Iboropa Ako,,,racheal.olarewaju,,,OSGOF,2019/02/27 06:32:04+00,Iboropa Ako Market,,,,,,,,,ODSANE07,110129,7.54,5.85
5.94162,7.63287,110130,Akunnu,,,racheal.olarewaju,,,OSGOF,2019/02/27 06:32:04+00,Akunnu Market,,,,,,,,,ODSANE08,110130,7.63,5.94
4.64572,6.49766,110131,Ode Igbisin,,,racheal.olarewaju,,,OSGOF,2019/02/27 06:32:04+00,Ode Igbisin Market,,,,,,,,,ODSPUP06,110131,6.5,4.65
4.83013,6.58737,110132,Agbabu,,,racheal.olarewaju,,,OSGOF,2019/02/27 06:32:04+00,Agbabu Market,,,,,,,,,ODSPUP11,110132,6.59,4.83
4.9735,6.84744,110133,Ariyo 2,,,racheal.olarewaju,,,OSGOF,2019/02/27 06:32:04+00,Ariyo Ii Market,,,,,,,,,ODSODI08,110133,6.85,4.97
4.8832,6.92825,110134,Igborowo,,,racheal.olarewaju,,,OSGOF,2019/02/27 06:32:04+00,Igborowo Market,,,,,,,,,ODSODI04,110134,6.93,4.88
5.91582,7.51275,110135,Ise Akoko,,,racheal.olarewaju,,,OSGOF,2019/02/27 06:32:04+00,Ise Akoko Market,,,,,,,,,ODSANE07,110135,7.51,5.92
5.91628,7.55663,110136,Auga Akoko,,,racheal.olarewaju,,,OSGOF,2019/02/27 06:32:04+00,Auga Akoko Market,,,,,,,,,ODSANE08,110136,7.56,5.92
5.5913,6.78327,110137,Okeluse,,,racheal.olarewaju,,,OSGOF,2019/02/27 06:32:04+00,Okeluse Market,,,,,,,,,ODSOSE11,110137,6.78,5.59
5.70854,6.82562,110138,Arimogija,,,racheal.olarewaju,,,OSGOF,2019/02/27 06:32:04+00,Arimogija Market,,,,,,,,,ODSOSE10,110138,6.83,5.71
5.60559,6.84789,110139,Ute,,,racheal.olarewaju,,,OSGOF,2019/02/27 06:32:04+00,Ute Market,,,,,,,,,ODSOSE12,110139,6.85,5.61
5.75729,6.86771,110140,Imoru,,,racheal.olarewaju,,,OSGOF,2019/02/27 06:32:04+00,Imoru Market,,,,,,,,,ODSOSE10,110140,6.87,5.76
5.7659,6.92845,110141,Ifon,,,racheal.olarewaju,,,OSGOF,2019/02/27 06:32:04+00,Ifon Market,,,,,,,,,ODSOSE06,110141,6.93,5.77
5.77513,6.93039,110142,Okuta,,,racheal.olarewaju,,,OSGOF,2019/02/27 06:32:04+00,Okuta Market,,,,,,,,,ODSOSE05,110142,6.93,5.78
5.78282,6.93807,110143,Ikaro,,,racheal.olarewaju,,,OSGOF,2019/02/27 06:32:04+00,Ikaro Market,,,,,,,,,ODSOSE08,110143,6.94,5.78
5.71518,7.01052,110144,Elegbeka Village,,,racheal.olarewaju,,,OSGOF,2019/02/27 06:32:04+00,Elegbeka Village Market,,,,,,,,,ODSOSE08,110144,7.01,5.72
5.67348,7.13393,110145,Ipele,,,racheal.olarewaju,,,OSGOF,2019/02/27 06:32:04+00,Ipele Market,,,,,,,,,ODSOWO08,110145,7.13,5.67
5.69655,7.15223,110146,Alao Village,,,racheal.olarewaju,,,OSGOF,2019/02/27 06:32:04+00,Alao Village Market,,,,,,,,,ODSOWO08,110146,7.15,5.7
5.62527,7.1683,110147,Ajiyoko,,,racheal.olarewaju,,,OSGOF,2019/02/27 06:32:04+00,Ajiyoko Market,,,,,,,,,ODSOWO10,110147,7.17,5.63
5.62518,7.16832,110148,Jos Motors Village,,,racheal.olarewaju,,,OSGOF,2019/02/27 06:32:04+00,Jos Motors Village Market,,,,,,,,,ODSOWO10,110148,7.17,5.63
5.61859,7.17065,110149,Ayegunle,,,racheal.olarewaju,,,OSGOF,2019/02/27 06:32:04+00,Ayegunle Market,,,,,,,,,ODSOWO10,110149,7.17,5.62
5.61369,7.17742,110150,Irowo,,,racheal.olarewaju,,,OSGOF,2019/02/27 06:32:04+00,Irowo Market,,,,,,,,,ODSOWO10,110150,7.18,5.61
5.61351,7.17966,110151,Annye,,,racheal.olarewaju,,,OSGOF,2019/02/27 06:32:04+00,Annye Market,,,,,,,,,ODSOWO10,110151,7.18,5.61
5.6244,7.18711,110152,Utelu I,,,racheal.olarewaju,,,OSGOF,2019/02/27 06:32:04+00,Utelu I Market,,,,,,,,,ODSOWO10,110152,7.19,5.62
5.57706,7.1899,110153,Anante,,,racheal.olarewaju,,,OSGOF,2019/02/27 06:32:04+00,Anante Market,,,,,,,,,ODSOWO02,110153,7.19,5.58
5.5837,7.19544,110154,Oba'S,,,racheal.olarewaju,,,OSGOF,2019/02/27 06:32:04+00,ObaS Market,,,,,,,,,ODSOWO04,110154,7.2,5.58
5.57204,7.20251,110155,Sadibo,,,racheal.olarewaju,,,OSGOF,2019/02/27 06:32:04+00,Sadibo Market,,,,,,,,,ODSOWO02,110155,7.2,5.57
5.58391,7.22106,110156,Isuada,,,racheal.olarewaju,,,OSGOF,2019/02/27 06:32:04+00,Isuada Market,,,,,,,,,ODSOWO03,110156,7.22,5.58
5.50624,7.24106,110157,Express,,,racheal.olarewaju,,,OSGOF,2019/02/27 06:32:04+00,Express Market,,,,,,,,,ODSOWO11,110157,7.24,5.51
5.62,7.25633,110158,Upenmen,,,racheal.olarewaju,,,OSGOF,2019/02/27 06:32:04+00,Upenmen Market,,,,,,,,,ODSOWO03,110158,7.26,5.62
5.3737,7.25939,110159,Ayede Ogbese,,,racheal.olarewaju,,,OSGOF,2019/02/27 06:32:04+00,Ayede Ogbese Market,,,,,,,,,ODSAKN08,110159,7.26,5.37
5.82246,7.26724,110160,Owani,,,racheal.olarewaju,,,OSGOF,2019/02/27 06:32:04+00,Owani Market,,,,,,,,,ODSOSE02,110160,7.27,5.82
5.42452,7.27331,110161,Uso,,,racheal.olarewaju,,,OSGOF,2019/02/27 06:32:04+00,Uso Market,,,,,,,,,ODSOWO11,110161,7.27,5.42
5.3058,7.27351,110162,Eleyowo Camp,,,racheal.olarewaju,,,OSGOF,2019/02/27 06:32:04+00,Eleyowo Camp Market,,,,,,,,,ODSAKN03,110162,7.27,5.31
5.62587,7.27863,110163,Ago Panu Village,,,racheal.olarewaju,,,OSGOF,2019/02/27 06:32:04+00,Ago Panu Village Market,,,,,,,,,ODSOWO03,110163,7.28,5.63
5.84603,7.29629,110164,Idoani Main,,,racheal.olarewaju,,,OSGOF,2019/02/27 06:32:04+00,Idoani Main Market,,,,,,,,,ODSOSE02,110164,7.3,5.85
5.89772,7.30006,110165,Sara,,,racheal.olarewaju,,,OSGOF,2019/02/27 06:32:04+00,Sara Market,,,,,,,,,ODSOSE04,110165,7.3,5.9
5.89903,7.30295,110166,Oja Oba,,,racheal.olarewaju,,,OSGOF,2019/02/27 06:32:04+00,Market Oja Oba,,,,,,,,,ODSOSE04,110166,7.3,5.9
5.82763,7.36828,110167,Afo,,,racheal.olarewaju,,,OSGOF,2019/02/27 06:32:04+00,Afo Market,,,,,,,,,ODSOSE01,110167,7.37,5.83
5.95177,7.36903,110168,Ipesi Akoko,,,racheal.olarewaju,,,OSGOF,2019/02/27 06:32:04+00,Ipesi Akoko Market,,,,,,,,,ODSASE06,110168,7.37,5.95
5.91727,7.38896,110169,Ifira Akoko,,,racheal.olarewaju,,,OSGOF,2019/02/27 06:32:04+00,Ifira Akoko Market,,,,,,,,,ODSASE03,110169,7.39,5.92
5.92286,7.40692,110170,Federal,,,racheal.olarewaju,,,OSGOF,2019/02/27 06:32:04+00,Federal Market,,,,,,,,,ODSASE11,110170,7.41,5.92
5.86105,7.41479,110171,Ipe Akoko,,,racheal.olarewaju,,,OSGOF,2019/02/27 06:32:04+00,Ipe Akoko Market,,,,,,,,,ODSASE04,110171,7.41,5.86
5.96149,7.44779,110172,Eti Ose,,,racheal.olarewaju,,,OSGOF,2019/02/27 06:32:04+00,Eti Ose Market,,,,,,,,,ODSASE08,110172,7.45,5.96
5.86397,7.45689,110173,Epinmi Akoko,,,racheal.olarewaju,,,OSGOF,2019/02/27 06:32:04+00,Epinmi Akoko Market,,,,,,,,,ODSASE01,110173,7.46,5.86
5.76612,7.56386,110174,Arigidi Akoko,,,racheal.olarewaju,,,OSGOF,2019/02/27 06:32:04+00,Arigidi Akoko Market,,,,,,,,,ODSANW03,110174,7.56,5.77
5.70678,7.57411,110175,Ogbagi Akoko,,,racheal.olarewaju,,,OSGOF,2019/02/27 06:32:04+00,Ogbagi Akoko Market,,,,,,,,,ODSANW08,110175,7.57,5.71
5.67157,7.57925,110176,Oke Igbo,,,racheal.olarewaju,,,OSGOF,2019/02/27 06:32:04+00,Oke Igbo Market,,,,,,,,,ODSANW09,110176,7.58,5.67
5.81543,7.58728,110177,Erusu Akoko,,,racheal.olarewaju,,,OSGOF,2019/02/27 06:32:04+00,Erusu Akoko Market,,,,,,,,,ODSANW04,110177,7.59,5.82
5.67068,7.58842,110178,Irun Akoko,,,racheal.olarewaju,,,OSGOF,2019/02/27 06:32:04+00,Irun Akoko Market,,,,,,,,,ODSANW07,110178,7.59,5.67
5.85613,7.60468,110179,Ikaram Akoko,,,racheal.olarewaju,,,OSGOF,2019/02/27 06:32:04+00,Ikaram Akoko Market,,,,,,,,,ODSANW06,110179,7.6,5.86
5.6977,7.6111,110180,Ese,,,racheal.olarewaju,,,OSGOF,2019/02/27 06:32:04+00,Ese Market,,,,,,,,,ODSANW05,110180,7.61,5.7
5.88058,7.63819,110181,Igedegede,,,racheal.olarewaju,,,OSGOF,2019/02/27 06:32:04+00,Igedegede Market,,,,,,,,,ODSANW02,110181,7.64,5.88
5.79826,7.72393,110182,Igasi Akoko,,,racheal.olarewaju,,,OSGOF,2019/02/27 06:32:04+00,Igasi Akoko Market,,,,,,,,,ODSANW02,110182,7.72,5.8
5.74386,6.96302,110183,Ori Ohin,,,racheal.olarewaju,,,OSGOF,2019/02/27 06:32:04+00,Ori Ohin Market,,,,,,,,,ODSOSE08,110183,6.96,5.74
5.26655,7.20925,110184,Ilado,,,racheal.olarewaju,,,OSGOF,2019/02/27 06:32:04+00,Ilado Market,,,,,,,,,ODSAKN02,110184,7.21,5.27
5.3849,7.2606,110185,Okeodo Village,,,racheal.olarewaju,,,OSGOF,2019/02/27 06:32:04+00,Okeodo Village Market,,,,,,,,,ODSAKN08,110185,7.26,5.38
5.46608,7.26453,110186,Amurin,,,racheal.olarewaju,,,OSGOF,2019/02/27 06:32:04+00,Amurin Market,,,,,,,,,ODSOWO11,110186,7.26,5.47
5.92014,7.42727,110187,Sosan Akoko,,,racheal.olarewaju,,,OSGOF,2019/02/27 06:32:04+00,Sosan Akoko Market,,,,,,,,,ODSASE11,110187,7.43,5.92
5.91592,7.4575,110188,Isua Akoko,,,racheal.olarewaju,,,OSGOF,2019/02/27 06:32:04+00,Isua Akoko Market,,,,,,,,,ODSASE08,110188,7.46,5.92
5.74818,7.59311,110189,Iye Akoko,,,racheal.olarewaju,,,OSGOF,2019/02/27 06:32:04+00,Iye Akoko Market,,,,,,,,,ODSANW03,110189,7.59,5.75
5.70788,7.30958,110190,Ugbowoye,,,racheal.olarewaju,,,OSGOF,2019/02/27 06:32:04+00,Ugbowoye Market,,,,,,,,,ODSASW09,110190,7.31,5.71
5.67165,7.31617,110191,Ose Oba,,,racheal.olarewaju,,,OSGOF,2019/02/27 06:32:04+00,Ose Oba Market,,,,,,,,,ODSASW09,110191,7.32,5.67
5.72745,7.37149,110192,Oja Oba Ulede,,,racheal.olarewaju,,,OSGOF,2019/02/27 06:32:04+00,Oja Oba Ulede,,,,,,,,,ODSASW09,110192,7.37,5.73
5.7216,7.37518,110193,Oba Akoko,,,racheal.olarewaju,,,OSGOF,2019/02/27 06:32:04+00,Oba Akoko Market,,,,,,,,,ODSASW10,110193,7.38,5.72
5.78046,7.37563,110194,Ikun Akoko,,,racheal.olarewaju,,,OSGOF,2019/02/27 06:32:04+00,Ikun Akoko Market,,,,,,,,,ODSASW08,110194,7.38,5.78
5.77048,7.4397,110195,Ebo Iwaro,,,racheal.olarewaju,,,OSGOF,2019/02/27 06:32:04+00,Ebo Market Iwaro,,,,,,,,,ODSASW04,110195,7.44,5.77
5.76441,7.44337,110196,Iwaro Oka,,,racheal.olarewaju,,,OSGOF,2019/02/27 06:32:04+00,Iwaro Oka Market,,,,,,,,,ODSASW13,110196,7.44,5.76
5.68954,7.44676,110197,Supare Akoko,,,racheal.olarewaju,,,OSGOF,2019/02/27 06:32:04+00,Supare Akoko Market,,,,,,,,,ODSASW14,110197,7.45,5.69
5.80326,7.45711,110198,Oka Akoko,,,racheal.olarewaju,,,OSGOF,2019/02/27 06:32:04+00,Oka Akoko Market,,,,,,,,,ODSASW07,110198,7.46,5.8
5.73595,7.46993,110199,Akungba Akoko,,,racheal.olarewaju,,,OSGOF,2019/02/27 06:32:04+00,Akungba Akoko Market,,,,,,,,,ODSASW02,110199,7.47,5.74
4.91964,6.34042,110200,Kiribo,,,racheal.olarewaju,,,OSGOF,2019/02/27 06:32:04+00,Kiribo Market,,,,,,,,,ODSESO01,110200,6.34,4.92
4.92157,6.42685,110201,Ajagba,,,racheal.olarewaju,,,OSGOF,2019/02/27 06:32:04+00,Ajagba Market,,,,,,,,,ODSESO04,110201,6.43,4.92
7.94917,6.65128,110202,Ojala,,,racheal.olarewaju,,,OSGOF,2017/07/13 04:25:58+00,Ojala Market,,,,,,,,,BNSGMU02,110202,6.65,7.95
8.03733,6.94725,110203,Avarichi,,,racheal.olarewaju,,,OSGOF,2017/07/13 04:25:58+00,Avarichi Market,,,,,,,,,BNSGMU09,110203,6.95,8.04
8.05748,6.9335,110204,Udebo,,,racheal.olarewaju,,,OSGOF,2017/07/13 04:25:58+00,Udebo Market,,,,,,,,,BNSGMU09,110204,6.93,8.06
8.0683,6.7713,110205,Ebia,,,racheal.olarewaju,,,OSGOF,2017/07/13 04:25:58+00,Ebia Market,,,,,,,,,BNSGMU06,110205,6.77,8.07
7.82724,7.93437,110206,Usha Abuja,,,racheal.olarewaju,,,OSGOF,2017/07/13 04:25:58+00,Usha Abuja Market,,,,,,,,,BNSGTU10,110206,7.93,7.83
7.91319,7.88956,110207,Obagaji,,,racheal.olarewaju,,,OSGOF,2017/07/13 04:25:58+00,Obagaji Market,,,,,,,,,BNSGTU03,110207,7.89,7.91
8.00725,7.87218,110208,Aila,,,racheal.olarewaju,,,OSGOF,2017/07/13 04:25:58+00,Aila Market,,,,,,,,,BNSGTU01,110208,7.87,8.01
8.97242,7.66334,110209,Mbasev II,,,racheal.olarewaju,,,OSGOF,2017/07/13 04:25:58+00,Mbasev II Market,,,,,,,,,BNSBKB11,110209,7.66,8.97
9.03967,7.50835,110210,Mbajande,,,racheal.olarewaju,,,OSGOF,2017/07/13 04:25:58+00,Mbajande Market,,,,,,,,,BNSBKB11,110210,7.51,9.04
9.08759,7.55068,110211,Mbaali,,,racheal.olarewaju,,,OSGOF,2017/07/13 04:25:58+00,Mbaali Market,,,,,,,,,BNSBKB05,110211,7.55,9.09
9.10576,7.21247,110212,Mbaaayev II,,,racheal.olarewaju,,,OSGOF,2017/07/13 04:25:58+00,Mbaaayev II Market,,,,,,,,,BNSBKB10,110212,7.21,9.11
9.11638,7.53106,110213,Mbasar,,,racheal.olarewaju,,,OSGOF,2017/07/13 04:25:58+00,Mbasar Market,,,,,,,,,BNSBKB05,110213,7.53,9.12
9.12675,7.487828,110214,Mbaagbanya,,,racheal.olarewaju,,,OSGOF,2017/07/13 04:25:58+00,Mbaagbanya Market,,,,,,,,,BNSBKB05,110214,7.49,9.13
9.14481,7.49666,110215,Mbanyion,,,racheal.olarewaju,,,OSGOF,2017/07/13 04:25:58+00,Mbanyion Market,,,,,,,,,BNSBKB05,110215,7.5,9.14
9.19916,7.24945,110216,Tyowanye,,,racheal.olarewaju,,,OSGOF,2017/07/13 04:25:58+00,Tyowanye Market,,,,,,,,,BNSBKB13,110216,7.25,9.2
9.20045,7.45867,110217,Buruku Town,,,racheal.olarewaju,,,OSGOF,2017/07/13 04:25:58+00,Buruku Town Market,,,,,,,,,BNSBKB05,110217,7.46,9.2
9.22799,7.15764,110218,Abakwa,,,racheal.olarewaju,,,OSGOF,2017/07/13 04:25:58+00,Abakwa Market,,,,,,,,,BNSBKB04,110218,7.16,9.23
9.23056,7.3335,110219,Gile 1,,,racheal.olarewaju,,,OSGOF,2017/07/13 04:25:58+00,Gile I Market,,,,,,,,,BNSBKB09,110219,7.33,9.23
9.24057,7.4879,110220,Mbamaashi,,,racheal.olarewaju,,,OSGOF,2017/07/13 04:25:58+00,Mbamaashi Market,,,,,,,,,BNSBKB01,110220,7.49,9.24
9.25338,7.32941,110221,Mbaanya,,,racheal.olarewaju,,,OSGOF,2017/07/13 04:25:58+00,Mbaanya Market,,,,,,,,,BNSBKB09,110221,7.33,9.25
8.09915,7.27726,110222,Junction,,,racheal.olarewaju,,,OSGOF,2017/07/13 04:25:58+00,Junction Market,,,,,,,,,BNSTKP06,110222,7.28,8.1
8.64674,7.29849,110223,Ikyumbur,,,racheal.olarewaju,,,OSGOF,2017/07/13 04:25:58+00,Ikyumbur Market,,,,,,,,,BNSTSE03,110223,7.3,8.65
8.71585,7.36021,110224,Ujon,,,racheal.olarewaju,,,OSGOF,2017/07/13 04:25:58+00,Ujon Market,,,,,,,,,BNSGBK06,110224,7.36,8.72
8.76345,7.26198,110225,Mbawuadi,,,racheal.olarewaju,,,OSGOF,2017/07/13 04:25:58+00,Mbawuadi Market,,,,,,,,,BNSGBK08,110225,7.26,8.76
8.79475,7.24473,110226,Mbaabera,,,racheal.olarewaju,,,OSGOF,2017/07/13 04:25:58+00,Mbaabera Market,,,,,,,,,BNSGBK08,110226,7.24,8.79
8.83071,7.24043,110227,Mbaakuna,,,racheal.olarewaju,,,OSGOF,2017/07/13 04:25:58+00,Mbaakuna Market,,,,,,,,,BNSGBK08,110227,7.24,8.83
8.83199,7.39256,110228,Mbaajuna,,,racheal.olarewaju,,,OSGOF,2017/07/13 04:25:58+00,Mbaajuna Market,,,,,,,,,BNSGBK15,110228,7.39,8.83
8.86914,7.32994,110229,Mbaanaza,,,racheal.olarewaju,,,OSGOF,2017/07/13 04:25:58+00,Mbaanaza Market,,,,,,,,,BNSGBK12,110229,7.33,8.87
8.87519,7.4099,110230,Mbaswa Mbazowo,,,racheal.olarewaju,,,OSGOF,2017/07/13 04:25:58+00,Mbaswa Mbazowo Market,,,,,,,,,BNSGBK13,110230,7.41,8.88
8.88793,7.40559,110231,Mbatiewe Mbaakuma,,,racheal.olarewaju,,,OSGOF,2017/07/13 04:25:58+00,Mbatiewe Mbaakuma Market,,,,,,,,,BNSGBK13,110231,7.41,8.89
8.89389,7.42317,110232,Mbaswa Mbaakwa,,,racheal.olarewaju,,,OSGOF,2017/07/13 04:25:58+00,Mbaswa Mbaakwa Market,,,,,,,,,BNSGBK13,110232,7.42,8.89
8.90951,7.35937,110233,Mbaakwenshi,,,racheal.olarewaju,,,OSGOF,2017/07/13 04:25:58+00,Mbaakwenshi Market,,,,,,,,,BNSGBK14,110233,7.36,8.91
8.93684,7.44909,110234,Mbaabo,,,racheal.olarewaju,,,OSGOF,2017/07/13 04:25:58+00,Mbaabo Market,,,,,,,,,BNSGBK14,110234,7.45,8.94
8.94689,7.46672,110235,Mbaasema I,,,racheal.olarewaju,,,OSGOF,2017/07/13 04:25:58+00,Mbaasema I Market,,,,,,,,,BNSGBK14,110235,7.47,8.95
8.94789,7.30098,110236,Mbaese,,,racheal.olarewaju,,,OSGOF,2017/07/13 04:25:58+00,Mbaese Market,,,,,,,,,BNSGBK13,110236,7.3,8.95
8.94972,7.43418,110237,Mbandyor II,,,racheal.olarewaju,,,OSGOF,2017/07/13 04:25:58+00,Mbandyor II Market,,,,,,,,,BNSGBK14,110237,7.43,8.95
8.94988,7.34573,110238,Mbaatari,,,racheal.olarewaju,,,OSGOF,2017/07/13 04:25:58+00,Mbaatari Market,,,,,,,,,BNSGBK13,110238,7.35,8.95
8.96755,7.33906,110239,Mbajen I,,,racheal.olarewaju,,,OSGOF,2017/07/13 04:25:58+00,Mbajen I Market,,,,,,,,,BNSGBK03,110239,7.34,8.97
8.96869,7.4229,110240,Mbakorihyen,,,racheal.olarewaju,,,OSGOF,2017/07/13 04:25:58+00,Mbakorihyen Market,,,,,,,,,BNSGBK14,110240,7.42,8.97
8.97886,7.4529,110241,Mbaasila,,,racheal.olarewaju,,,OSGOF,2017/07/13 04:25:58+00,Mbaasila Market,,,,,,,,,BNSGBK16,110241,7.45,8.98
9.02029,7.37715,110242,Mbatur,,,racheal.olarewaju,,,OSGOF,2017/07/13 04:25:58+00,Mbatur Market,,,,,,,,,BNSGBK03,110242,7.38,9.02
9.02332,7.3266,110243,Mbaiwar,,,racheal.olarewaju,,,OSGOF,2017/07/13 04:25:58+00,Mbaiwar Market,,,,,,,,,BNSGBK02,110243,7.33,9.02
9.02343,7.26071,110244,Mbaagule,,,racheal.olarewaju,,,OSGOF,2017/07/13 04:25:58+00,Mbaagule Market,,,,,,,,,BNSGBK10,110244,7.26,9.02
9.02622,7.46552,110245,Mbayakuma,,,racheal.olarewaju,,,OSGOF,2017/07/13 04:25:58+00,Mbayakuma Market,,,,,,,,,BNSGBK16,110245,7.47,9.03
9.04181,7.35916,110246,Genyi,,,racheal.olarewaju,,,OSGOF,2017/07/13 04:25:58+00,Genyi Market,,,,,,,,,BNSGBK02,110246,7.36,9.04
9.04767,7.31126,110247,Mkar Settlement,,,racheal.olarewaju,,,OSGOF,2017/07/13 04:25:58+00,Mkar Settlement Market,,,,,,,,,BNSGBK10,110247,7.31,9.05
9.05562,7.44534,110248,Afea,,,racheal.olarewaju,,,OSGOF,2017/07/13 04:25:58+00,Afea Market,,,,,,,,,BNSGBK09,110248,7.45,9.06
9.06345,7.28269,110250,Vaashom,,,racheal.olarewaju,,,OSGOF,2017/07/13 04:25:58+00,Vaashom Market,,,,,,,,,BNSGBK10,110250,7.28,9.06
9.06551,7.43461,110251,Mbaagbe,,,racheal.olarewaju,,,OSGOF,2017/07/13 04:25:58+00,Mbaagbe Market,,,,,,,,,BNSGBK09,110251,7.43,9.07
9.09302,7.2703,110252,Tsegbetien,,,racheal.olarewaju,,,OSGOF,2017/07/13 04:25:58+00,Tsegbetien Market,,,,,,,,,BNSGBK10,110252,7.27,9.09
9.10407,7.33006,110253,Mbabee,,,racheal.olarewaju,,,OSGOF,2017/07/13 04:25:58+00,Mbabee Market,,,,,,,,,BNSGBK05,110253,7.33,9.1
9.11358,7.37337,110254,Mbaagishuatiev,,,racheal.olarewaju,,,OSGOF,2017/07/13 04:25:58+00,Mbaagishuatiev Market,,,,,,,,,BNSGBK10,110254,7.37,9.11
9.11463,7.2821,110255,Anchongu,,,racheal.olarewaju,,,OSGOF,2017/07/13 04:25:58+00,Anchongu Market,,,,,,,,,BNSGBK10,110255,7.28,9.11
9.12872,7.27939,110256,Mbaatai,,,racheal.olarewaju,,,OSGOF,2017/07/13 04:25:58+00,Mbaatai Market,,,,,,,,,BNSGBK05,110256,7.28,9.13
9.14579,7.40426,110257,Mbahyondu,,,racheal.olarewaju,,,OSGOF,2017/07/13 04:25:58+00,Mbahyondu Market,,,,,,,,,BNSBKB05,110257,7.4,9.15
9.14645,7.36667,110258,Mbakusuv,,,racheal.olarewaju,,,OSGOF,2017/07/13 04:25:58+00,Mbakusuv Market,,,,,,,,,BNSGBK05,110258,7.37,9.15
9.15585,7.33994,110259,Mbashabu,,,racheal.olarewaju,,,OSGOF,2017/07/13 04:25:58+00,Mbashabu Market,,,,,,,,,BNSGBK05,110259,7.34,9.16
9.1666,7.29123,110260,Gatie,,,racheal.olarewaju,,,OSGOF,2017/07/13 04:25:58+00,Gatie Market,,,,,,,,,BNSGBK05,110260,7.29,9.17
9.18701,7.32403,110261,Mbaadam,,,racheal.olarewaju,,,OSGOF,2017/07/13 04:25:58+00,Mbaadam Market,,,,,,,,,BNSGBK05,110261,7.32,9.19
8.44556,7.99787,110262,Yogbo,,,racheal.olarewaju,,,OSGOF,2017/07/13 04:25:58+00,Yogbo Market,,,,,,,,,BNSYGJ06,110262,8,8.45
8.55495,8.03487,110263,Mbaorobe I,,,racheal.olarewaju,,,OSGOF,2017/07/13 04:25:58+00,Mbaorobe I Market,,,,,,,,,BNSYGJ07,110263,8.03,8.55
8.58754,7.91312,110264,Daudu,,,racheal.olarewaju,,,OSGOF,2017/07/13 04:25:58+00,Daudu Market,,,,,,,,,BNSYGJ05,110264,7.91,8.59
8.63555,7.96972,110265,Uikpam,,,racheal.olarewaju,,,OSGOF,2017/07/13 04:25:58+00,Uikpam Market,,,,,,,,,BNSYGJ03,110265,7.97,8.64
8.75065,7.75055,110266,Abinsi,,,racheal.olarewaju,,,OSGOF,2017/07/13 04:25:58+00,Abinsi Market,,,,,,,,,BNSYGJ01,110266,7.75,8.75
8.76066,7.98503,110267,Umenger,,,racheal.olarewaju,,,OSGOF,2017/07/13 04:25:58+00,Umenger Market,,,,,,,,,BNSYGJ04,110267,7.99,8.76
8.81252,7.72582,110268,Azom Utange,,,racheal.olarewaju,,,OSGOF,2017/07/13 04:25:58+00,Azom Utange Market,,,,,,,,,BNSYGJ01,110268,7.73,8.81
8.86061,7.81827,110269,Gbajimba,,,racheal.olarewaju,,,OSGOF,2017/07/13 04:25:58+00,Gbajimba Market,,,,,,,,,BNSYGJ08,110269,7.82,8.86
8.86951,7.70997,110270,Agasha,,,racheal.olarewaju,,,OSGOF,2017/07/13 04:25:58+00,Agasha Market,,,,,,,,,BNSYGJ02,110270,7.71,8.87
8.933,7.93351,110271,Tomotar,,,racheal.olarewaju,,,OSGOF,2017/07/13 04:25:58+00,Tomotar Market,,,,,,,,,BNSYGJ08,110271,7.93,8.93
8.94581,7.90811,110272,Tomanyiin,,,racheal.olarewaju,,,OSGOF,2017/07/13 04:25:58+00,Tomanyiin Market,,,,,,,,,BNSYGJ08,110272,7.91,8.95
9.01343,7.59871,110273,Mbayar,,,racheal.olarewaju,,,OSGOF,2017/07/13 04:25:58+00,Mbayar Market,,,,,,,,,BNSYGJ09,110273,7.6,9.01
9.04956,7.67878,110274,Mbamnyam I,,,racheal.olarewaju,,,OSGOF,2017/07/13 04:25:58+00,Mbamnyam I Market,,,,,,,,,BNSYGJ09,110274,7.68,9.05
9.05214,7.89756,110275,Mbahyande,,,racheal.olarewaju,,,OSGOF,2017/07/13 04:25:58+00,Mbahyande Market,,,,,,,,,BNSGBG07,110275,7.9,9.05
9.05326,7.75349,110276,Mbabaka,,,racheal.olarewaju,,,OSGOF,2017/07/13 04:25:58+00,Mbabaka Market,,,,,,,,,BNSYGJ09,110276,7.75,9.05
9.07862,7.67679,110277,Ginde,,,racheal.olarewaju,,,OSGOF,2017/07/13 04:25:58+00,Ginde Market,,,,,,,,,BNSYGJ09,110277,7.68,9.08
9.08357,7.5787,110278,Pevi,,,racheal.olarewaju,,,OSGOF,2017/07/13 04:25:58+00,Pevi Market,,,,,,,,,BNSBKB05,110278,7.58,9.08
9.11243,7.63008,110279,Aviaka,,,racheal.olarewaju,,,OSGOF,2017/07/13 04:25:58+00,Aviaka Market,,,,,,,,,BNSYGJ09,110279,7.63,9.11
8.21035,7.16594,110280,Mbakimbi,,,racheal.olarewaju,,,OSGOF,2017/07/13 04:25:58+00,Mbakimbi Market,,,,,,,,,BNSTKP05,110280,7.17,8.21
8.22545,7.14946,110281,Mbanayo,,,racheal.olarewaju,,,OSGOF,2017/07/13 04:25:58+00,Mbanayo Market,,,,,,,,,BNSTKP05,110281,7.15,8.23
8.22659,7.37133,110282,Aver,,,racheal.olarewaju,,,OSGOF,2017/07/13 04:25:58+00,Aver Market,,,,,,,,,BNSALD14,110282,7.37,8.23
8.26532,7.35125,110283,Mbaagor II,,,racheal.olarewaju,,,OSGOF,2017/07/13 04:25:58+00,Mbaagor II Market,,,,,,,,,BNSALD14,110283,7.35,8.27
8.26862,7.25787,110284,Taraku Town,,,racheal.olarewaju,,,OSGOF,2017/07/13 04:25:58+00,Taraku Town Market,,,,,,,,,BNSALD08,110284,7.26,8.27
8.27146,7.40304,110285,Ajinde Ikyov,,,racheal.olarewaju,,,OSGOF,2017/07/13 04:25:58+00,Ajinde Market Ikyov,,,,,,,,,BNSALD14,110285,7.4,8.27
8.27333,7.153,110286,Mbaazema,,,racheal.olarewaju,,,OSGOF,2017/07/13 04:25:58+00,Mbaazema Market,,,,,,,,,BNSALD08,110286,7.15,8.27
8.31102,7.40266,110287,Onmbatim,,,racheal.olarewaju,,,OSGOF,2017/07/13 04:25:58+00,Onmbatim Market,,,,,,,,,BNSALD08,110287,7.4,8.31
8.32975,7.35341,110288,Atsor,,,racheal.olarewaju,,,OSGOF,2017/07/13 04:25:58+00,Atsor Market,,,,,,,,,BNSALD14,110288,7.35,8.33
8.33026,7.42338,110289,Mbamela,,,racheal.olarewaju,,,OSGOF,2017/07/13 04:25:58+00,Mbamela Market,,,,,,,,,BNSALD08,110289,7.42,8.33
8.36571,7.28433,110290,Onmbaba,,,racheal.olarewaju,,,OSGOF,2017/07/13 04:25:58+00,Onmbaba Market,,,,,,,,,BNSALD12,110290,7.28,8.37
8.37113,7.21499,110291,Mbazema,,,racheal.olarewaju,,,OSGOF,2017/07/13 04:25:58+00,Mbazema Market,,,,,,,,,BNSALD05,110291,7.21,8.37
8.37345,7.37912,110292,Mbaashaghem,,,racheal.olarewaju,,,OSGOF,2017/07/13 04:25:58+00,Mbaashaghem Market,,,,,,,,,BNSALD14,110292,7.38,8.37
8.39298,7.24042,110293,Mbaasokaa,,,racheal.olarewaju,,,OSGOF,2017/07/13 04:25:58+00,Mbaasokaa Market,,,,,,,,,BNSALD12,110293,7.24,8.39
8.39967,7.25322,110294,Mbadajo I,,,racheal.olarewaju,,,OSGOF,2017/07/13 04:25:58+00,Mbadajo I Market,,,,,,,,,BNSALD12,110294,7.25,8.4
8.40386,7.24318,110295,Mbagba,,,racheal.olarewaju,,,OSGOF,2017/07/13 04:25:58+00,Mbagba Market,,,,,,,,,BNSALD12,110295,7.24,8.4
8.40523,7.1564,110296,Epwa Ete,,,racheal.olarewaju,,,OSGOF,2017/07/13 04:25:58+00,Epwa Ete Market,,,,,,,,,BNSALD01,110296,7.16,8.41
8.41252,7.25107,110297,Mbafakyon,,,racheal.olarewaju,,,OSGOF,2017/07/13 04:25:58+00,Mbafakyon Market,,,,,,,,,BNSALD12,110297,7.25,8.41
8.41503,7.34952,110298,Mbaade,,,racheal.olarewaju,,,OSGOF,2017/07/13 04:25:58+00,Mbaade Market,,,,,,,,,BNSALD06,110298,7.35,8.42
8.435771,7.28915,110299,Mbajuku,,,racheal.olarewaju,,,OSGOF,2017/07/13 04:25:58+00,Mbajuku Market,,,,,,,,,BNSALD06,110299,7.29,8.44
8.43878,7.19742,110300,Mbakyaaibo,,,racheal.olarewaju,,,OSGOF,2017/07/13 04:25:58+00,Mbakyaaibo Market,,,,,,,,,BNSALD03,110300,7.2,8.44
8.43965,7.35192,110301,Mbawoo,,,racheal.olarewaju,,,OSGOF,2017/07/13 04:25:58+00,Mbawoo Market,,,,,,,,,BNSALD06,110301,7.35,8.44
8.44131,7.09537,110302,Ochoro,,,racheal.olarewaju,,,OSGOF,2017/07/13 04:25:58+00,Ochoro Market,,,,,,,,,BNSALD01,110302,7.1,8.44
8.44566,7.22181,110303,Mbaagayo,,,racheal.olarewaju,,,OSGOF,2017/07/13 04:25:58+00,Mbaagayo Market,,,,,,,,,BNSALD03,110303,7.22,8.45
8.44682,7.33023,110304,Mbaikyo I,,,racheal.olarewaju,,,OSGOF,2017/07/13 04:25:58+00,Mbaikyo I Market,,,,,,,,,BNSALD06,110304,7.33,8.45
8.4511,7.2946,110305,Austoma Settlement,,,racheal.olarewaju,,,OSGOF,2017/07/13 04:25:58+00,Austoma Settlement Market,,,,,,,,,BNSALD06,110305,7.29,8.45
8.46034,7.21296,110306,Mbatswa,,,racheal.olarewaju,,,OSGOF,2017/07/13 04:25:58+00,Mbatswa Market,,,,,,,,,BNSALD03,110306,7.21,8.46
8.46838,7.34495,110307,Onmbasongo,,,racheal.olarewaju,,,OSGOF,2017/07/13 04:25:58+00,Onmbasongo Market,,,,,,,,,BNSALD09,110307,7.34,8.47
8.46952,7.57408,110308,Onmbawuhe,,,racheal.olarewaju,,,OSGOF,2017/07/13 04:25:58+00,Onmbawuhe Market,,,,,,,,,BNSMKD03,110308,7.57,8.47
8.48251,7.2946,110309,Aliade Town,,,racheal.olarewaju,,,OSGOF,2017/07/13 04:25:58+00,Aliade Town Market,,,,,,,,,BNSALD09,110309,7.29,8.48
8.49302,7.37204,110310,Mbaamem,,,racheal.olarewaju,,,OSGOF,2017/07/13 04:25:58+00,Mbaamem Market,,,,,,,,,BNSALD09,110310,7.37,8.49
8.4952,7.34495,110311,Mbachakar,,,racheal.olarewaju,,,OSGOF,2017/07/13 04:25:58+00,Mbachakar Market,,,,,,,,,BNSALD07,110311,7.34,8.5
8.51146,7.19844,110313,Mbaadali,,,racheal.olarewaju,,,OSGOF,2017/07/13 04:25:58+00,Mbaadali Market,,,,,,,,,BNSALD01,110313,7.2,8.51
8.51733,7.33281,110314,Abenga,,,racheal.olarewaju,,,OSGOF,2017/07/13 04:25:58+00,Abenga Market,,,,,,,,,BNSALD09,110314,7.33,8.52
8.5178,7.38895,110315,Mbaaben II,,,racheal.olarewaju,,,OSGOF,2017/07/13 04:25:58+00,Mbaaben II Market,,,,,,,,,BNSALD07,110315,7.39,8.52
8.53808,7.33858,110316,Mbakende I,,,racheal.olarewaju,,,OSGOF,2017/07/13 04:25:58+00,Mbakende I Market,,,,,,,,,BNSALD07,110316,7.34,8.54
8.55318,7.57884,110317,Mbagbanger,,,racheal.olarewaju,,,OSGOF,2017/07/13 04:25:58+00,Mbagbanger Market,,,,,,,,,BNSMKD03,110317,7.58,8.55
8.55777,7.35418,110318,Mbakende II,,,racheal.olarewaju,,,OSGOF,2017/07/13 04:25:58+00,Mbakende II Market,,,,,,,,,BNSALD07,110318,7.35,8.56
8.58059,7.37502,110319,Mbayarikaa II,,,racheal.olarewaju,,,OSGOF,2017/07/13 04:25:58+00,Mbayarikaa II Market,,,,,,,,,BNSALD07,110319,7.38,8.58
8.58084,7.42549,110320,Mase,,,racheal.olarewaju,,,OSGOF,2017/07/13 04:25:58+00,Mase Market,,,,,,,,,BNSALD07,110320,7.43,8.58
8.59886,7.57235,110321,Mbavambe,,,racheal.olarewaju,,,OSGOF,2017/07/13 04:25:58+00,Mbavambe Market,,,,,,,,,BNSMKD03,110321,7.57,8.6
8.60723,7.44974,110322,Mbagbaa,,,racheal.olarewaju,,,OSGOF,2017/07/13 04:25:58+00,Mbagbaa Market,,,,,,,,,BNSALD07,110322,7.45,8.61
8.64347,7.65925,110323,Tswardyugh,,,racheal.olarewaju,,,OSGOF,2017/07/13 04:25:58+00,Tswardyugh Market,,,,,,,,,BNSMKD06,110323,7.66,8.64
8.70432,7.70126,110324,Mbabi,,,racheal.olarewaju,,,OSGOF,2017/07/13 04:25:58+00,Mbabi Market,,,,,,,,,BNSYGJ01,110324,7.7,8.7
8.7398,7.65809,110325,Mbakeng I,,,racheal.olarewaju,,,OSGOF,2017/07/13 04:25:58+00,Mbakeng I Market,,,,,,,,,BNSYGJ01,110325,7.66,8.74
8.13553,7.71575,110326,Agagbe,,,racheal.olarewaju,,,OSGOF,2017/07/13 04:25:58+00,Agagbe Market,,,,,,,,,BNSNAK05,110326,7.72,8.14
8.20505,7.58304,110327,Naka,,,racheal.olarewaju,,,OSGOF,2017/07/13 04:25:58+00,Naka Market,,,,,,,,,BNSNAK03,110327,7.58,8.21
9.29697,7.26868,110329,Nanev,,,racheal.olarewaju,,,OSGOF,2017/07/13 04:25:58+00,Nanev Market,,,,,,,,,BNSKAL02,110329,7.27,9.3
9.33077,7.3022,110330,Mbasaar,,,racheal.olarewaju,,,OSGOF,2017/07/13 04:25:58+00,Mbasaar Market,,,,,,,,,BNSKAL02,110330,7.3,9.33
9.35714,7.32209,110331,Youghur,,,racheal.olarewaju,,,OSGOF,2017/07/13 04:25:58+00,Youghur Market,,,,,,,,,BNSKAL01,110331,7.32,9.36
9.37334,7.16595,110332,Mbanyikyaa,,,racheal.olarewaju,,,OSGOF,2017/07/13 04:25:58+00,Mbanyikyaa Market,,,,,,,,,BNSKAL08,110332,7.17,9.37
9.39651,7.17973,110333,Mbazer I,,,racheal.olarewaju,,,OSGOF,2017/07/13 04:25:58+00,Mbazer I Market,,,,,,,,,BNSKAL08,110333,7.18,9.4
9.40054,7.16605,110334,Mbatange,,,racheal.olarewaju,,,OSGOF,2017/07/13 04:25:58+00,Mbatange Market,,,,,,,,,BNSKAL08,110334,7.17,9.4
9.40816,7.40661,110335,Mbagule,,,racheal.olarewaju,,,OSGOF,2017/07/13 04:25:58+00,Mbagule,,,,,,,,,BNSKAL03,110335,7.41,9.41
9.42381,7.4454,110336,Mbagenga I,,,racheal.olarewaju,,,OSGOF,2017/07/13 04:25:58+00,Mbagenga I Market,,,,,,,,,BNSKAL03,110336,7.45,9.42
9.43269,7.14202,110337,Mbaagbetar I,,,racheal.olarewaju,,,OSGOF,2017/07/13 04:25:58+00,Mbaagbetar I Market,,,,,,,,,BNSKAL08,110337,7.14,9.43
9.4445,7.35188,110338,Mbaaember,,,racheal.olarewaju,,,OSGOF,2017/07/13 04:25:58+00,Mbaaember Market,,,,,,,,,BNSKAL03,110338,7.35,9.44
9.45995,7.17909,110339,Abaji,,,racheal.olarewaju,,,OSGOF,2017/07/13 04:25:58+00,Abaji Market,,,,,,,,,BNSKAL08,110339,7.18,9.46
9.48821,7.14104,110340,Mbayamsa I,,,racheal.olarewaju,,,OSGOF,2017/07/13 04:25:58+00,Mbayamsa I Market,,,,,,,,,BNSKAL08,110340,7.14,9.49
9.49179,7.21817,110341,Mbaashua,,,racheal.olarewaju,,,OSGOF,2017/07/13 04:25:58+00,Mbaashua Market,,,,,,,,,BNSKAL08,110341,7.22,9.49
9.51916,7.1984,110342,Mbaacbetar II,,,racheal.olarewaju,,,OSGOF,2017/07/13 04:25:58+00,Mbaacbetar II Market,,,,,,,,,BNSKAL08,110342,7.2,9.52
9.53317,7.28573,110343,Square Kudi,,,racheal.olarewaju,,,OSGOF,2017/07/13 04:25:58+00,Market Square Kudi,,,,,,,,,BNSKAL04,110343,7.29,9.53
9.54143,7.20533,110344,Mbaaonshi Mbadam,,,racheal.olarewaju,,,OSGOF,2017/07/13 04:25:58+00,Mbaaonshi Mbadam Market,,,,,,,,,BNSKAL04,110344,7.21,9.54
9.62581,7.08315,110345,Mbayange,,,racheal.olarewaju,,,OSGOF,2017/07/13 04:25:58+00,Mbayange Market,,,,,,,,,BNSKAL08,110345,7.08,9.63
9.62704,7.1241,110346,Agushi,,,racheal.olarewaju,,,OSGOF,2017/07/13 04:25:58+00,Agushi Market,,,,,,,,,BNSKAL04,110346,7.12,9.63
9.64214,7.38603,110347,Mbakozer II,,,racheal.olarewaju,,,OSGOF,2017/07/13 04:25:58+00,Mbakozer II Market,,,,,,,,,BNSKAL09,110347,7.39,9.64
9.64615,7.33933,110348,Mbakpire I,,,racheal.olarewaju,,,OSGOF,2017/07/13 04:25:58+00,Mbakpire I Market,,,,,,,,,BNSKAL04,110348,7.34,9.65
9.6492,7.37061,110349,Mbagbaudu,,,racheal.olarewaju,,,OSGOF,2017/07/13 04:25:58+00,Mbagbaudu Market,,,,,,,,,BNSKAL09,110349,7.37,9.65
9.68805,7.13198,110350,Tor Tacha,,,racheal.olarewaju,,,OSGOF,2017/07/13 04:25:58+00,Tor Tacha Market,,,,,,,,,BNSKAL11,110350,7.13,9.69
9.69286,7.35128,110351,Mbaag Ande,,,racheal.olarewaju,,,OSGOF,2017/07/13 04:25:58+00,Mbaag Ande Market,,,,,,,,,BNSKAL09,110351,7.35,9.69
9.72056,7.18541,110352,Nyamshadaa,,,racheal.olarewaju,,,OSGOF,2017/07/13 04:25:58+00,Nyamshadaa Market,,,,,,,,,BNSKAL11,110352,7.19,9.72
9.72976,7.36519,110353,Vambe Square,,,racheal.olarewaju,,,OSGOF,2017/07/13 04:25:58+00,Vambe Market Square,,,,,,,,,BNSUKM12,110353,7.37,9.73
9.73401,7.40865,110354,Tegher,,,racheal.olarewaju,,,OSGOF,2017/07/13 04:25:58+00,Tegher Market,,,,,,,,,BNSUKM12,110354,7.41,9.73
9.737,7.18415,110355,Mbaapine,,,racheal.olarewaju,,,OSGOF,2017/07/13 04:25:58+00,Mbaapine Market,,,,,,,,,BNSKAL11,110355,7.18,9.74
9.74522,7.41609,110356,Mbaaule I,,,racheal.olarewaju,,,OSGOF,2017/07/13 04:25:58+00,Mbaaule I Market,,,,,,,,,BNSUKM12,110356,7.42,9.75
9.74947,7.37633,110357,Mbata,,,racheal.olarewaju,,,OSGOF,2017/07/13 04:25:58+00,Mbata Market,,,,,,,,,BNSUKM13,110357,7.38,9.75
9.75206,7.41098,110358,M Bakutov,,,racheal.olarewaju,,,OSGOF,2017/07/13 04:25:58+00,M Bakutov Market,,,,,,,,,BNSUKM13,110358,7.41,9.75
9.76568,7.16056,110359,Mbamough,,,racheal.olarewaju,,,OSGOF,2017/07/13 04:25:58+00,Mbamough Market,,,,,,,,,BNSKAL11,110359,7.16,9.77
9.77209,7.40274,110360,Agbur Square,,,racheal.olarewaju,,,OSGOF,2017/07/13 04:25:58+00,Agbur Market Square,,,,,,,,,BNSUKM13,110360,7.4,9.77
9.77568,7.37919,110361,Mbapenda,,,racheal.olarewaju,,,OSGOF,2017/07/13 04:25:58+00,Mbapenda Market,,,,,,,,,BNSUKM13,110361,7.38,9.78
9.77922,7.39946,110362,Mbatea I,,,racheal.olarewaju,,,OSGOF,2017/07/13 04:25:58+00,Mbatea I Market,,,,,,,,,BNSUKM13,110362,7.4,9.78
9.78985,7.36367,110363,Mbawanche,,,racheal.olarewaju,,,OSGOF,2017/07/13 04:25:58+00,Mbawanche Market,,,,,,,,,BNSUKM13,110363,7.36,9.79
9.79436,7.17602,110364,Awange,,,racheal.olarewaju,,,OSGOF,2017/07/13 04:25:58+00,Awange Market,,,,,,,,,BNSKAL11,110364,7.18,9.79
9.79628,7.416,110365,Mbakura I,,,racheal.olarewaju,,,OSGOF,2017/07/13 04:25:58+00,Mbakura I Market,,,,,,,,,BNSUKM13,110365,7.42,9.8
9.8125,7.4475,110366,Chilebo,,,racheal.olarewaju,,,OSGOF,2017/07/13 04:25:58+00,Chilebo Market,,,,,,,,,BNSUKM13,110366,7.45,9.81
9.81914,7.45796,110367,Mbasaradi,,,racheal.olarewaju,,,OSGOF,2017/07/13 04:25:58+00,Mbasaradi Market,,,,,,,,,BNSUKM13,110367,7.46,9.82
9.70031,7.33989,110368,Mbahirnyam I,,,racheal.olarewaju,,,OSGOF,2017/07/13 04:25:58+00,Mbahirnyam I Market,,,,,,,,,BNSKAL09,110368,7.34,9.7
8.48435,7.06501,110369,Mbangur,,,racheal.olarewaju,,,OSGOF,2017/07/13 04:25:58+00,Mbangur Market,,,,,,,,,BNSJUX11,110369,7.07,8.48
8.49956,7.03335,110370,Shiriki,,,racheal.olarewaju,,,OSGOF,2017/07/13 04:25:58+00,Shiriki Market,,,,,,,,,BNSJUX11,110370,7.03,8.5
8.54655,7.29034,110371,Mba Abenga,,,racheal.olarewaju,,,OSGOF,2017/07/13 04:25:58+00,Mba Abenga Market,,,,,,,,,BNSTSE02,110371,7.29,8.55
8.58214,7.06112,110372,Mbawar,,,racheal.olarewaju,,,OSGOF,2017/07/13 04:25:58+00,Mbawar Market,,,,,,,,,BNSTSE06,110372,7.06,8.58
8.60139,6.95398,110373,Mbaagba,,,racheal.olarewaju,,,OSGOF,2017/07/13 04:25:58+00,Mbaagba Market,,,,,,,,,BNSTSE01,110373,6.95,8.6
8.72724,7.95066,110374,Akputu,,,racheal.olarewaju,,,OSGOF,2017/07/13 04:25:58+00,Akputu Market,,,,,,,,,BNSYGJ04,110374,7.95,8.73
8.97083,6.80328,110375,Mbagbaya,,,racheal.olarewaju,,,OSGOF,2017/07/13 04:25:58+00,Mbagbaya Market,,,,,,,,,BNSTSE11,110375,6.8,8.97
8.98382,6.80937,110376,Mbaemen,,,racheal.olarewaju,,,OSGOF,2017/07/13 04:25:58+00,Mbaemen Market,,,,,,,,,BNSTSE11,110376,6.81,8.98
9.32319,6.77419,110377,Mbatse Tse II,,,racheal.olarewaju,,,OSGOF,2017/07/13 04:25:58+00,Mbatse Tse II Market,,,,,,,,,BNSWDP06,110377,6.77,9.32
9.40074,6.84722,110378,Kwenen,,,racheal.olarewaju,,,OSGOF,2017/07/13 04:25:58+00,Kwenen Market,,,,,,,,,BNSWDP06,110378,6.85,9.4
9.41034,6.98022,110379,Agundusha,,,racheal.olarewaju,,,OSGOF,2017/07/13 04:25:58+00,Agundusha Market,,,,,,,,,BNSWDP02,110379,6.98,9.41
9.41057,6.96113,110380,Ihangev,,,racheal.olarewaju,,,OSGOF,2017/07/13 04:25:58+00,Ihangev Market,,,,,,,,,BNSWDP02,110380,6.96,9.41
9.41802,6.85719,110381,Kwenen,,,racheal.olarewaju,,,OSGOF,2017/07/13 04:25:58+00,Kwenen,,,,,,,,,BNSWDP06,110381,6.86,9.42
9.42463,6.96224,110382,Mbayongo,,,racheal.olarewaju,,,OSGOF,2017/07/13 04:25:58+00,Mbayongo Market,,,,,,,,,BNSWDP02,110382,6.96,9.42
9.42664,7.04689,110383,Tomataan,,,racheal.olarewaju,,,OSGOF,2017/07/13 04:25:58+00,Tomataan Market,,,,,,,,,BNSKAL08,110383,7.05,9.43
9.43189,6.99315,110384,Mbakor,,,racheal.olarewaju,,,OSGOF,2017/07/13 04:25:58+00,Mbakor Market,,,,,,,,,BNSWDP02,110384,6.99,9.43
9.43313,6.91718,110385,Ichaveribya,,,racheal.olarewaju,,,OSGOF,2017/07/13 04:25:58+00,Ichaveribya Market,,,,,,,,,BNSWDP02,110385,6.92,9.43
9.4372,7.0206,110386,Abanve,,,racheal.olarewaju,,,OSGOF,2017/07/13 04:25:58+00,Abanve Market,,,,,,,,,BNSWDP02,110386,7.02,9.44
9.45583,6.9523,110387,Mbawuar,,,racheal.olarewaju,,,OSGOF,2017/07/13 04:25:58+00,Mbawuar Market,,,,,,,,,BNSWDP02,110387,6.95,9.46
9.45592,7.05057,110388,Akinde 2,,,racheal.olarewaju,,,OSGOF,2017/07/13 04:25:58+00,Akinde II Market,,,,,,,,,BNSKAL08,110388,7.05,9.46
9.45758,7.00522,110389,Abwa,,,racheal.olarewaju,,,OSGOF,2017/07/13 04:25:58+00,Abwa Market,,,,,,,,,BNSWDP02,110389,7.01,9.46
9.46083,6.85406,110390,Kaamem,,,racheal.olarewaju,,,OSGOF,2017/07/13 04:25:58+00,Kaamem Market,,,,,,,,,BNSWDP05,110390,6.85,9.46
9.46108,6.87704,110391,Injorshin,,,racheal.olarewaju,,,OSGOF,2017/07/13 04:25:58+00,Injorshin Market,,,,,,,,,BNSWDP05,110391,6.88,9.46
9.46435,7.01757,110392,Ayaga,,,racheal.olarewaju,,,OSGOF,2017/07/13 04:25:58+00,Ayaga Market,,,,,,,,,BNSWDP02,110392,7.02,9.46
9.46517,7.03865,110393,Jumbev II,,,racheal.olarewaju,,,OSGOF,2017/07/13 04:25:58+00,Jumbev II Market,,,,,,,,,BNSKAL08,110393,7.04,9.47
9.48698,7.01692,110394,Annune,,,racheal.olarewaju,,,OSGOF,2017/07/13 04:25:58+00,Annune Market,,,,,,,,,BNSWDP05,110394,7.02,9.49
9.48702,6.94742,110395,Uhyundu,,,racheal.olarewaju,,,OSGOF,2017/07/13 04:25:58+00,Uhyundu Market,,,,,,,,,BNSWDP02,110395,6.95,9.49
9.50105,6.86951,110396,Injorsha,,,racheal.olarewaju,,,OSGOF,2017/07/13 04:25:58+00,Injorsha Market,,,,,,,,,BNSWDP05,110396,6.87,9.5
9.50521,7.00767,110397,Ushia Ii,,,racheal.olarewaju,,,OSGOF,2017/07/13 04:25:58+00,Ushia Ii Market,,,,,,,,,BNSWDP05,110397,7.01,9.51
9.50754,6.95058,110398,Chembe Danyi,,,racheal.olarewaju,,,OSGOF,2017/07/13 04:25:58+00,Chembe Danyi Market,,,,,,,,,BNSWDP02,110398,6.95,9.51
9.51887,6.88915,110399,Mbesev Mbako,,,racheal.olarewaju,,,OSGOF,2017/07/13 04:25:58+00,Mbesev Mbako Market,,,,,,,,,BNSWDP15,110399,6.89,9.52
9.54028,6.96286,110400,Mbayagase,,,racheal.olarewaju,,,OSGOF,2017/07/13 04:25:58+00,Mbayagase Market,,,,,,,,,BNSWDP15,110400,6.96,9.54
9.54268,6.93859,110401,Mbakutem,,,racheal.olarewaju,,,OSGOF,2017/07/13 04:25:58+00,Mbakutem Market,,,,,,,,,BNSWDP15,110401,6.94,9.54
9.55654,6.70631,110402,Uvor Diiv,,,racheal.olarewaju,,,OSGOF,2017/07/13 04:25:58+00,Uvor Diiv Market,,,,,,,,,BNSWDP03,110402,6.71,9.56
9.564,6.50767,110403,Tyukasev,,,racheal.olarewaju,,,OSGOF,2017/07/13 04:25:58+00,Tyukasev Market,,,,,,,,,BNSWDP03,110403,6.51,9.56
9.57483,6.60975,110404,Ibamegh,,,racheal.olarewaju,,,OSGOF,2017/07/13 04:25:58+00,Ibamegh Market,,,,,,,,,BNSWDP04,110404,6.61,9.57
9.59321,6.65196,110405,Achinagwa,,,racheal.olarewaju,,,OSGOF,2017/07/13 04:25:58+00,Achinagwa Market,,,,,,,,,BNSWDP04,110405,6.65,9.59
9.59329,7.05837,110406,Ngenev I,,,racheal.olarewaju,,,OSGOF,2017/07/13 04:25:58+00,Ngenev I Market,,,,,,,,,BNSKAL08,110406,7.06,9.59
9.61005,6.79523,110407,Mbayagher,,,racheal.olarewaju,,,OSGOF,2017/07/13 04:25:58+00,Mbayagher Market,,,,,,,,,BNSWDP06,110407,6.8,9.61
9.61097,6.87489,110408,Mbaigbe,,,racheal.olarewaju,,,OSGOF,2017/07/13 04:25:58+00,Mbaigbe Market,,,,,,,,,BNSWDP15,110408,6.87,9.61
9.08523,7.81534,110409,Mbakorya,,,racheal.olarewaju,,,OSGOF,2017/07/13 04:25:58+00,Mbakorya Market,,,,,,,,,BNSGBG07,110409,7.82,9.09
9.08914,7.76178,110410,Uzer,,,racheal.olarewaju,,,OSGOF,2017/07/13 04:25:58+00,Uzer Market,,,,,,,,,BNSGBG07,110410,7.76,9.09
9.13032,7.7733,110411,Ayilamo,,,racheal.olarewaju,,,OSGOF,2017/07/13 04:25:58+00,Ayilamo Market,,,,,,,,,BNSGBG07,110411,7.77,9.13
9.1683,7.74038,110412,Mbaimbur,,,racheal.olarewaju,,,OSGOF,2017/07/13 04:25:58+00,Mbaimbur Market,,,,,,,,,BNSGBG07,110412,7.74,9.17
9.18376,7.73424,110413,Mbakanegh,,,racheal.olarewaju,,,OSGOF,2017/07/13 04:25:58+00,Mbakanegh Market,,,,,,,,,BNSGBG02,110413,7.73,9.18
9.22682,7.55618,110414,Mbakwanji,,,racheal.olarewaju,,,OSGOF,2017/07/13 04:25:58+00,Mbakwanji Market,,,,,,,,,BNSGBG06,110414,7.56,9.23
9.24162,7.55832,110415,Mbatighir,,,racheal.olarewaju,,,OSGOF,2017/07/13 04:25:58+00,Mbatighir Market,,,,,,,,,BNSGBG06,110415,7.56,9.24
9.24405,7.81707,110416,Mbaayar,,,racheal.olarewaju,,,OSGOF,2017/07/13 04:25:58+00,Mbaayar Market,,,,,,,,,BNSGBG02,110416,7.82,9.24
9.26983,7.69002,110417,Ukpen,,,racheal.olarewaju,,,OSGOF,2017/07/13 04:25:58+00,Ukpen Market,,,,,,,,,BNSGBG09,110417,7.69,9.27
9.27939,7.30978,110418,Mbagbecembe,,,racheal.olarewaju,,,OSGOF,2017/07/13 04:25:58+00,Mbagbecembe Market,,,,,,,,,BNSBKB12,110418,7.31,9.28
9.31868,7.71392,110419,Aboda Town,,,racheal.olarewaju,,,OSGOF,2017/07/13 04:25:58+00,Aboda Town Market,,,,,,,,,BNSGBG04,110419,7.71,9.32
9.32269,7.62482,110420,Mbaiho,,,racheal.olarewaju,,,OSGOF,2017/07/13 04:25:58+00,Mbaiho Market,,,,,,,,,BNSGBG10,110420,7.62,9.32
9.33476,7.68724,110421,Akpajir 1,,,racheal.olarewaju,,,OSGOF,2017/07/13 04:25:58+00,Akpajir I Market,,,,,,,,,BNSGBG04,110421,7.69,9.33
9.36,7.64735,110422,Mbadisha,,,racheal.olarewaju,,,OSGOF,2017/07/13 04:25:58+00,Mbadisha Market,,,,,,,,,BNSGBG10,110422,7.65,9.36
9.36158,7.49899,110423,Ugba Town,,,racheal.olarewaju,,,OSGOF,2017/07/13 04:25:58+00,Ugba Town Market,,,,,,,,,BNSGBG05,110423,7.5,9.36
9.37727,7.55282,110424,Asom,,,racheal.olarewaju,,,OSGOF,2017/07/13 04:25:58+00,Asom Market,,,,,,,,,BNSGBG03,110424,7.55,9.38
9.39625,7.48997,110425,Mbaatsughkya,,,racheal.olarewaju,,,OSGOF,2017/07/13 04:25:58+00,Mbaatsughkya Market,,,,,,,,,BNSGBG01,110425,7.49,9.4
9.41359,7.61348,110426,Akaa,,,racheal.olarewaju,,,OSGOF,2017/07/13 04:25:58+00,Akaa Market,,,,,,,,,BNSGBG10,110426,7.61,9.41
9.43793,7.69575,110427,Mbadukur,,,racheal.olarewaju,,,OSGOF,2017/07/13 04:25:58+00,Mbadukur Market,,,,,,,,,BNSGBG04,110427,7.7,9.44
9.44215,7.60012,110428,Mbajinge,,,racheal.olarewaju,,,OSGOF,2017/07/13 04:25:58+00,Mbajinge Market,,,,,,,,,BNSGBG03,110428,7.6,9.44
9.47138,7.45047,110429,Gondozua,,,racheal.olarewaju,,,OSGOF,2017/07/13 04:25:58+00,Gondozua Market,,,,,,,,,BNSKAL09,110429,7.45,9.47
9.49065,7.5253,110430,Kave II,,,racheal.olarewaju,,,OSGOF,2017/07/13 04:25:58+00,Kave II Market,,,,,,,,,BNSKAL03,110430,7.53,9.49
8.26261,7.10042,110431,Orikpe,,,racheal.olarewaju,,,OSGOF,2017/07/13 04:25:58+00,Orikpe Market,,,,,,,,,BNSBRT08,110431,7.1,8.26
8.26452,7.04305,110432,Adega,,,racheal.olarewaju,,,OSGOF,2017/07/13 04:25:58+00,Adega Market,,,,,,,,,BNSBRT04,110432,7.04,8.26
8.36641,6.98047,110433,Oplem,,,racheal.olarewaju,,,OSGOF,2017/07/13 04:25:58+00,Oplem Market,,,,,,,,,BNSBRT02,110433,6.98,8.37
7.54294,7.03703,110434,Ipole Adupi,,,racheal.olarewaju,,,OSGOF,2017/07/13 04:25:58+00,Ipole Adupi Market,,,,,,,,,BNSBGT01,110434,7.04,7.54
7.58011,6.98939,110435,Okonukwo Iyiru Orokam,,,racheal.olarewaju,,,OSGOF,2017/07/13 04:25:58+00,Okonukwo Iyiru Orokam Market,,,,,,,,,BNSBGT01,110435,6.99,7.58
7.58143,6.96333,110436,Ipole Itabono Owukpa,,,racheal.olarewaju,,,OSGOF,2017/07/13 04:25:58+00,Ipole Itabono Owukpa Market,,,,,,,,,BNSBGT09,110436,6.96,7.58
7.63163,7.05985,110437,Olaobekpa Ipole Otukpa,,,racheal.olarewaju,,,OSGOF,2017/07/13 04:25:58+00,Olaobekpa Ipole Otukpa Market,,,,,,,,,BNSBGT05,110437,7.06,7.63
7.66627,7.020507,110438,Ugbogidi,,,racheal.olarewaju,,,OSGOF,2017/07/13 04:25:58+00,Ugbogidi Market,,,,,,,,,BNSBGT03,110438,7.02,7.67
7.66754,7.14077,110439,New Branch Obu,,,racheal.olarewaju,,,OSGOF,2017/07/13 04:25:58+00,New Branch Obu Market,,,,,,,,,BNSBGT08,110439,7.14,7.67
7.67677,7.01178,110440,Aigbena,,,racheal.olarewaju,,,OSGOF,2017/07/13 04:25:58+00,Aigbena Market,,,,,,,,,BNSBGT03,110440,7.01,7.68
7.702,7.02713,110441,Adumaiona Center,,,racheal.olarewaju,,,OSGOF,2017/07/13 04:25:58+00,Adumaiona Centre Market,,,,,,,,,BNSBGT03,110441,7.03,7.7
8.17107,6.86272,110443,Ogege I,,,racheal.olarewaju,,,OSGOF,2017/07/13 04:25:58+00,Ogege I Market,,,,,,,,,BNSJUX04,110443,6.86,8.17
8.22521,6.82343,110444,Ato Tokofon,,,racheal.olarewaju,,,OSGOF,2017/07/13 04:25:58+00,Ato Tokofon Market,,,,,,,,,BNSJUX02,110444,6.82,8.23
8.25489,6.80531,110445,Ibilladum,,,racheal.olarewaju,,,OSGOF,2017/07/13 04:25:58+00,Ibilladum Market,,,,,,,,,BNSJUX02,110445,6.81,8.25
8.29632,6.83081,110446,Obussa,,,racheal.olarewaju,,,OSGOF,2017/07/13 04:25:58+00,Obussa Market,,,,,,,,,BNSJUX02,110446,6.83,8.3
8.30237,6.8721,110447,Ekpong,,,racheal.olarewaju,,,OSGOF,2017/07/13 04:25:58+00,Ekpong Market,,,,,,,,,BNSJUX02,110447,6.87,8.3
8.32539,6.77156,110448,Inyuma,,,racheal.olarewaju,,,OSGOF,2017/07/13 04:25:58+00,Inyuma Market,,,,,,,,,BNSJUX09,110448,6.77,8.33
8.35663,6.84703,110449,Itikpala I,,,racheal.olarewaju,,,OSGOF,2017/07/13 04:25:58+00,Itikpala I Market,,,,,,,,,BNSJUX02,110449,6.85,8.36
8.3764,6.72927,110450,Owori Obotu,,,racheal.olarewaju,,,OSGOF,2017/07/13 04:25:58+00,Owori Obotu Market,,,,,,,,,BNSJUX09,110450,6.73,8.38
8.42242,6.87429,110451,Iju,,,racheal.olarewaju,,,OSGOF,2017/07/13 04:25:58+00,Iju Market,,,,,,,,,BNSJUX03,110451,6.87,8.42
8.44714,6.92829,110452,Ochodu,,,racheal.olarewaju,,,OSGOF,2017/07/13 04:25:58+00,Ochodu Market,,,,,,,,,BNSJUX11,110452,6.93,8.45
8.44869,7.02371,110453,Ukpute Ainu,,,racheal.olarewaju,,,OSGOF,2017/07/13 04:25:58+00,Ukpute Ainu Market,,,,,,,,,BNSJUX11,110453,7.02,8.45
8.45997,6.82128,110454,Ogbodo,,,racheal.olarewaju,,,OSGOF,2017/07/13 04:25:58+00,Ogbodo Market,,,,,,,,,BNSJUX05,110454,6.82,8.46
8.46269,6.93628,110455,Ebonda,,,racheal.olarewaju,,,OSGOF,2017/07/13 04:25:58+00,Ebonda Market,,,,,,,,,BNSJUX11,110455,6.94,8.46
8.46505,6.83211,110456,Ebong Ojegbe,,,racheal.olarewaju,,,OSGOF,2017/07/13 04:25:58+00,Ebong Ojegbe Market,,,,,,,,,BNSJUX05,110456,6.83,8.47
8.49961,6.8641,110457,Aduma,,,racheal.olarewaju,,,OSGOF,2017/07/13 04:25:58+00,Aduma Market,,,,,,,,,BNSJUX05,110457,6.86,8.5
7.73119,6.93117,110458,Ipole Awona,,,racheal.olarewaju,,,OSGOF,2017/07/13 04:25:58+00,Ipole Awona Market,,,,,,,,,BNSPKG04,110458,6.93,7.73
7.75165,7.07984,110459,Ehicho Aochu,,,racheal.olarewaju,,,OSGOF,2017/07/13 04:25:58+00,Ehicho Aochu Market,,,,,,,,,BNSBGT07,110459,7.08,7.75
7.75558,7.07915,110460,Ede Okpoga,,,racheal.olarewaju,,,OSGOF,2017/07/13 04:25:58+00,Ede Okpoga Market,,,,,,,,,BNSBGT07,110460,7.08,7.76
7.76073,7.17869,110461,Ugbonoko Contral,,,racheal.olarewaju,,,OSGOF,2017/07/13 04:25:58+00,Ugbonoko Contral Market,,,,,,,,,BNSPKG12,110461,7.18,7.76
7.77943,7.1281,110463,Ateikpo okpafie,,,racheal.olarewaju,,,OSGOF,2017/07/13 04:25:58+00,Ateikpo okpafie Market,,,,,,,,,BNSPKG06,110463,7.13,7.78
7.78161,7.00952,110464,Ache Che Olagbeno,,,racheal.olarewaju,,,OSGOF,2017/07/13 04:25:58+00,Ache Che Olagbeno Market,,,,,,,,,BNSPKG11,110464,7.01,7.78
7.78161,7.06217,110465,Okonafor Okpudu,,,racheal.olarewaju,,,OSGOF,2017/07/13 04:25:58+00,Okonafor Okpudu Market,,,,,,,,,BNSPKG09,110465,7.06,7.78
7.78357,7.08586,110466,Enimiche Ehaje,,,racheal.olarewaju,,,OSGOF,2017/07/13 04:25:58+00,Enimiche Ehaje Market,,,,,,,,,BNSPKG09,110466,7.09,7.78
7.79792,7.01966,110467,Idobe Ipole,,,racheal.olarewaju,,,OSGOF,2017/07/13 04:25:58+00,Idobe Ipole Market,,,,,,,,,BNSPKG10,110467,7.02,7.8
7.80856,7.21129,110468,Aokpe,,,racheal.olarewaju,,,OSGOF,2017/07/13 04:25:58+00,Aokpe Market,,,,,,,,,BNSPKG12,110468,7.21,7.81
7.81234,7.03774,110469,Ugwue Center,,,racheal.olarewaju,,,OSGOF,2017/07/13 04:25:58+00,Ugwue Centre Market,,,,,,,,,BNSPKG08,110469,7.04,7.81
7.82838,7.20097,110470,Otobi,,,racheal.olarewaju,,,OSGOF,2017/07/13 04:25:58+00,Otobi Market,,,,,,,,,BNSPKG12,110470,7.2,7.83
7.93485,7.14782,110471,Olengbecho,,,racheal.olarewaju,,,OSGOF,2017/07/13 04:25:58+00,Olengbecho Market,,,,,,,,,BNSDKP07,110471,7.15,7.93
8.09469,7.10611,110472,Otobo,,,racheal.olarewaju,,,OSGOF,2017/07/13 04:25:58+00,Otobo Market,,,,,,,,,BNSTKP07,110472,7.11,8.09
8.7826,7.61574,110473,Ahike Atakpa Compound,,,racheal.olarewaju,,,OSGOF,2017/07/13 04:25:58+00,Ahike Atakpa Compound,,,,,,,,,BNSWNN01,110473,7.62,8.78
8.78453,7.71751,110474,Tiortyu,,,racheal.olarewaju,,,OSGOF,2017/07/13 04:25:58+00,Tiortyu Market,,,,,,,,,BNSYGJ01,110474,7.72,8.78
8.7868,7.60516,110475,Anyike,,,racheal.olarewaju,,,OSGOF,2017/07/13 04:25:58+00,Anyike Market,,,,,,,,,BNSWNN09,110475,7.61,8.79
8.82448,7.54889,110476,Anchiha,,,racheal.olarewaju,,,OSGOF,2017/07/13 04:25:58+00,Anchiha Market,,,,,,,,,BNSWNN09,110476,7.55,8.82
8.84409,7.6433,110477,Junction At Shilevaan,,,racheal.olarewaju,,,OSGOF,2017/07/13 04:25:58+00,Junction At Shilevaan Market,,,,,,,,,BNSWNN01,110477,7.64,8.84
8.84493,7.51585,110478,Tyotsar,,,racheal.olarewaju,,,OSGOF,2017/07/13 04:25:58+00,Tyotsar Market,,,,,,,,,BNSWNN09,110478,7.52,8.84
8.85105,7.61004,110479,Square 1,,,racheal.olarewaju,,,OSGOF,2017/07/13 04:25:58+00,Market Square 1,,,,,,,,,BNSWNN03,110479,7.61,8.85
8.85148,7.51892,110480,Aniboho,,,racheal.olarewaju,,,OSGOF,2017/07/13 04:25:58+00,Aniboho Market,,,,,,,,,BNSWNN09,110480,7.52,8.85
8.86162,7.6951,110481,Akpa,,,racheal.olarewaju,,,OSGOF,2017/07/13 04:25:58+00,Akpa Market,,,,,,,,,BNSWNN03,110481,7.7,8.86
8.86864,7.65288,110482,Square 2,,,racheal.olarewaju,,,OSGOF,2017/07/13 04:25:58+00,Market Square 2,,,,,,,,,BNSWNN03,110482,7.65,8.87
8.87325,7.50157,110483,Tyongi,,,racheal.olarewaju,,,OSGOF,2017/07/13 04:25:58+00,Tyongi Market,,,,,,,,,BNSWNN04,110483,7.5,8.87
8.88214,7.5718,110484,Wanune Square,,,racheal.olarewaju,,,OSGOF,2017/07/13 04:25:58+00,Wanune Market Square,,,,,,,,,BNSWNN07,110484,7.57,8.88
8.88892,7.66135,110485,Kobo,,,racheal.olarewaju,,,OSGOF,2017/07/13 04:25:58+00,Kobo Market,,,,,,,,,BNSWNN07,110485,7.66,8.89
8.89443,7.52095,110486,Agudo,,,racheal.olarewaju,,,OSGOF,2017/07/13 04:25:58+00,Agudo Market,,,,,,,,,BNSWNN03,110486,7.52,8.89
8.9152,7.49966,110487,Tarhembe,,,racheal.olarewaju,,,OSGOF,2017/07/13 04:25:58+00,Tarhembe Market,,,,,,,,,BNSWNN04,110487,7.5,8.92
8.9334,7.67919,110488,Awenabo,,,racheal.olarewaju,,,OSGOF,2017/07/13 04:25:58+00,Awenabo Market,,,,,,,,,BNSWNN08,110488,7.68,8.93
8.9138,7.58704,110489,Dormenger,,,racheal.olarewaju,,,OSGOF,2017/07/13 04:25:58+00,Dormenger Market,,,,,,,,,BNSWNN06,110489,7.59,8.91
9.49358,7.5605,110490,Afia,,,racheal.olarewaju,,,OSGOF,2017/07/13 04:25:58+00,Afia Market,,,,,,,,,BNSGBG05,110490,7.56,9.49
9.60395,7.71607,110491,Chito,,,racheal.olarewaju,,,OSGOF,2017/07/13 04:25:58+00,Chito Market,,,,,,,,,BNSUKM02,110491,7.72,9.6
9.64158,7.60603,110492,Vandev I,,,racheal.olarewaju,,,OSGOF,2017/07/13 04:25:58+00,Vandev I Market,,,,,,,,,BNSUKM05,110492,7.61,9.64
9.61282,7.49592,110493,Zaki Biam,,,racheal.olarewaju,,,OSGOF,2017/07/13 04:25:58+00,Zaki Biam Market,,,,,,,,,BNSUKM13,110493,7.5,9.61
9.67863,7.46867,110494,Mbasom I,,,racheal.olarewaju,,,OSGOF,2017/07/13 04:25:58+00,Mbasom I Market,,,,,,,,,BNSUKM12,110494,7.47,9.68
9.72664,7.64407,110495,Kyado,,,racheal.olarewaju,,,OSGOF,2017/07/13 04:25:58+00,Kyado Market,,,,,,,,,BNSUKM10,110495,7.64,9.73
9.7468,7.51327,110496,Ayati,,,racheal.olarewaju,,,OSGOF,2017/07/13 04:25:58+00,Ayati Market,,,,,,,,,BNSUKM08,110496,7.51,9.75
9.00621,6.91459,110497,Mbanyakan,,,racheal.olarewaju,,,OSGOF,2017/07/13 04:25:58+00,Mbanyakan Market,,,,,,,,,BNSVDY01,110497,6.91,9.01
9.01915,6.79645,110498,Mbabeeka,,,racheal.olarewaju,,,OSGOF,2017/07/13 04:25:58+00,Mbabeeka Market,,,,,,,,,BNSVDY06,110498,6.8,9.02
9.02648,7.00735,110499,Ihugh Town,,,racheal.olarewaju,,,OSGOF,2017/07/13 04:25:58+00,Ihugh Town Market,,,,,,,,,BNSSEL01,110499,7.01,9.03
9.03889,6.73544,110500,Mbagbe,,,racheal.olarewaju,,,OSGOF,2017/07/13 04:25:58+00,Mbagbe Market,,,,,,,,,BNSVDY09,110500,6.74,9.04
9.05363,6.70032,110501,Mbazeka,,,racheal.olarewaju,,,OSGOF,2017/07/13 04:25:58+00,Mbazeka Market,,,,,,,,,BNSVDY09,110501,6.7,9.05
9.06221,6.93731,110502,Mbavav,,,racheal.olarewaju,,,OSGOF,2017/07/13 04:25:58+00,Mbavav Market,,,,,,,,,BNSVDY01,110502,6.94,9.06
9.06933,6.78382,110503,Vandeikya,,,racheal.olarewaju,,,OSGOF,2017/07/13 04:25:58+00,Vandeikya Market,,,,,,,,,BNSVDY12,110503,6.78,9.07
9.08068,6.84852,110504,Mbakaashi,,,racheal.olarewaju,,,OSGOF,2017/07/13 04:25:58+00,Mbakaashi Market,,,,,,,,,BNSVDY04,110504,6.85,9.08
9.09294,6.82673,110505,Mbatakom,,,racheal.olarewaju,,,OSGOF,2017/07/13 04:25:58+00,Mbatakom Market,,,,,,,,,BNSVDY04,110505,6.83,9.09
9.09813,6.65803,110506,Mbaaposugh,,,racheal.olarewaju,,,OSGOF,2017/07/13 04:25:58+00,Mbaaposugh Market,,,,,,,,,BNSVDY11,110506,6.66,9.1
9.10931,6.85832,110507,Mbakanfer II,,,racheal.olarewaju,,,OSGOF,2017/07/13 04:25:58+00,Mbakanfer II Market,,,,,,,,,BNSVDY01,110507,6.86,9.11
9.12133,6.83303,110508,Mbagile II Mbanonku,,,racheal.olarewaju,,,OSGOF,2017/07/13 04:25:58+00,Mbagile II Mbanonku Market,,,,,,,,,BNSVDY07,110508,6.83,9.12
9.1268,7.00392,110509,Mbahwembe,,,racheal.olarewaju,,,OSGOF,2017/07/13 04:25:58+00,Mbahwembe Market,,,,,,,,,BNSSEL01,110509,7,9.13
9.13826,6.7983,110510,Mbajia,,,racheal.olarewaju,,,OSGOF,2017/07/13 04:25:58+00,Mbajia Market,,,,,,,,,BNSVDY07,110510,6.8,9.14
9.14865,6.6924,110511,Mbawuasi,,,racheal.olarewaju,,,OSGOF,2017/07/13 04:25:58+00,Mbawuasi Market,,,,,,,,,BNSVDY08,110511,6.69,9.15
9.15905,6.75446,110512,Nyamkpe,,,racheal.olarewaju,,,OSGOF,2017/07/13 04:25:58+00,Nyamkpe Market,,,,,,,,,BNSVDY04,110512,6.75,9.16
9.1976,6.87336,110513,Mbayade,,,racheal.olarewaju,,,OSGOF,2017/07/13 04:25:58+00,Mbayade Market,,,,,,,,,BNSWDP13,110513,6.87,9.2
4.82376,7.49842,110514,Iperindo Main,,,racheal.olarewaju,,,eHA_Polio,2013/02/06 04:47:52+00,Iperindo Main Market,,,,,,,,,OSSAME06,110514,7.5,4.82
4.62023,7.58566,110516,Ayeyemi,,,racheal.olarewaju,,,eHA_Polio,2013/02/06 04:47:52+00,Ayeyemi Market,,,,,,,,,OSSAMW09,110516,7.59,4.62
4.62424,7.58285,110517,Ogunloye,,,racheal.olarewaju,,,eHA_Polio,2013/02/06 04:47:52+00,Ogunloye Market,,,,,,,,,OSSAMW09,110517,7.58,4.62
4.67935,7.5927,110518,Ibodi,,,racheal.olarewaju,,,eHA_Polio,2013/02/06 04:47:52+00,Ibodi Market,,,,,,,,,OSSAMW01,110518,7.59,4.68
4.63216,7.72226,110519,Kajola Kajola,,,racheal.olarewaju,,,eHA_Polio,2013/02/06 04:47:52+00,Kajola Market Kajola,,,,,,,,,OSSAMW08,110519,7.72,4.63
4.3599,7.47478,110520,Olufi Gbongan,,,racheal.olarewaju,,,eHA_Polio,2013/02/06 04:47:52+00,Olufi Market Gbongan,,,,,,,,,OSSADE08,110520,7.47,4.36
4.18765,7.60131,110521,Araromi Oluponwa,,,racheal.olarewaju,,,eHA_Polio,2013/02/06 04:47:52+00,Araromi Market Oluponwa,,,,,,,,,OSSAYE10,110521,7.6,4.19
4.24175,7.62229,110522,Ojomode,,,racheal.olarewaju,,,eHA_Polio,2013/02/06 04:47:52+00,Ojomode Market,,,,,,,,,OSSAYE04,110522,7.62,4.24
4.84322,7.93706,110523,Obada Iresi,,,racheal.olarewaju,,,eHA_Polio,2013/02/06 04:47:52+00,Obada Market Iresi,,,,,,,,,OSSBOLUW05,110523,7.94,4.84
4.43261,7.73803,110524,Oja Timi,,,racheal.olarewaju,,,eHA_Polio,2013/02/06 04:47:52+00,Oja Timi Market,,,,,,,,,OSSENH08,110524,7.74,4.43
4.43438,7.74482,110525,Oje Alaso,,,racheal.olarewaju,,,eHA_Polio,2013/02/06 04:47:52+00,Oje Alaso Market,,,,,,,,,OSSENH09,110525,7.74,4.43
4.45059,7.7018,110527,Oba Laminisa,,,racheal.olarewaju,,,eHA_Polio,2013/02/06 04:47:52+00,Oba Laminisa Market,,,,,,,,,OSSESH01,110527,7.7,4.45
4.44026,7.62144,110529,Sekona,,,racheal.olarewaju,,,eHA_Polio,2013/02/06 04:47:52+00,Sekona Market,,,,,,,,,OSSESH10,110529,7.62,4.44
4.38224,7.85393,110530,Ara,,,racheal.olarewaju,,,eHA_Polio,2013/02/06 04:47:52+00,Ara Market,,,,,,,,,OSSEDE02,110530,7.85,4.38
4.52074,7.83577,110531,Okinni,,,racheal.olarewaju,,,eHA_Polio,2013/02/06 04:47:52+00,Okinni Market,,,,,,,,,OSSEDE10,110531,7.84,4.52
4.50205,7.78018,110533,Omolade Plaza,,,racheal.olarewaju,,,eHA_Polio,2013/02/06 04:47:52+00,Omolade Plaza,,,,,,,,,OSSEDE10,110533,7.78,4.5
4.52343,7.78594,110535,Olorunsogo Faroda Adeleke,,,racheal.olarewaju,,,eHA_Polio,2013/02/06 04:47:52+00,Olorunsogo Market Faroda Adeleke,,,,,,,,,OSSEDE10,110535,7.79,4.52
4.31406,7.9016,110536,Gbamage Shopping Complex,,,racheal.olarewaju,,,eHA_Polio,2013/02/06 04:47:52+00,Gbamage Shopping Complex,,,,,,,,,OSSEGO06,110536,7.9,4.31
4.31561,7.90411,110537,Baara,,,racheal.olarewaju,,,eHA_Polio,2013/02/06 04:47:52+00,Baara Market,,,,,,,,,OSSEGO06,110537,7.9,4.32
4.27119,7.94484,110538,Agurodo,,,racheal.olarewaju,,,eHA_Polio,2013/02/06 04:47:52+00,Agurodo Market,,,,,,,,,OSSEGO09,110538,7.94,4.27
4.27838,7.81325,110539,Alawos,,,racheal.olarewaju,,,eHA_Polio,2013/02/06 04:47:52+00,Alawos Market,,,,,,,,,OSSEGO05,110539,7.81,4.28
4.26159,7.86543,110540,Isundunrin,,,racheal.olarewaju,,,eHA_Polio,2013/02/06 04:47:52+00,Isundunrin Market,,,,,,,,,OSSEGO05,110540,7.87,4.26
4.55651,7.48031,110541,Itakoun,,,racheal.olarewaju,,,eHA_Polio,2013/02/06 04:47:52+00,Itakoun Market,,,,,,,,,OSSICL04,110541,7.48,4.56
4.55404,7.49454,110543,Apollo,,,racheal.olarewaju,,,eHA_Polio,2013/02/06 04:47:52+00,Apollo Market,,,,,,,,,OSSICL03,110543,7.49,4.55
4.54357,7.47454,110544,Olorunsogo,,,racheal.olarewaju,,,eHA_Polio,2013/02/06 04:47:52+00,Olorunsogo Market,,,,,,,,,OSSIET04,110544,7.47,4.54
4.56423,7.47043,110545,Iloro,,,racheal.olarewaju,,,eHA_Polio,2013/02/06 04:47:52+00,Iloro Market,,,,,,,,,OSSIET04,110545,7.47,4.56
4.60261,7.18002,110546,Omifunfun Main,,,racheal.olarewaju,,,eHA_Polio,2013/02/06 04:47:52+00,Omifunfun Main Market,,,,,,,,,OSSISH06,110546,7.18,4.6
4.6297,7.26521,110547,Olode Main,,,racheal.olarewaju,,,eHA_Polio,2013/02/06 04:47:52+00,Olode Main Market,,,,,,,,,OSSISH10,110547,7.27,4.63
4.66124,7.22867,110548,Egbejoda Main,,,racheal.olarewaju,,,eHA_Polio,2013/02/06 04:47:52+00,Egbejoda Main Market,,,,,,,,,OSSISH08,110548,7.23,4.66
4.69673,7.18103,110549,Towobaje,,,racheal.olarewaju,,,eHA_Polio,2013/02/06 04:47:52+00,Towobaje Market,,,,,,,,,OSSISH07,110549,7.18,4.7
4.656956,7.91917,110552,Monday,,,racheal.olarewaju,,,eHA_Polio,2013/02/06 04:47:52+00,Monday Market,,,,,,,,,OSSIDN07,110552,7.92,4.66
4.66703,7.90456,110554,Saturday,,,racheal.olarewaju,,,eHA_Polio,2013/02/06 04:47:52+00,Saturday Market,,,,,,,,,OSSBOE02,110554,7.9,4.67
4.65581,7.90725,110555,Alamisi,,,racheal.olarewaju,,,eHA_Polio,2013/02/06 04:47:52+00,Alamisi Market,,,,,,,,,OSSIDN10,110555,7.91,4.66
4.59067,7.94446,110556,Obada Eko Ende,,,racheal.olarewaju,,,eHA_Polio,2013/02/06 04:47:52+00,Obada Market Eko Ende,,,,,,,,,OSSIDN03,110556,7.94,4.59
4.70396,7.97031,110557,Obada Aiya Village,,,racheal.olarewaju,,,eHA_Polio,2013/02/06 04:47:52+00,Obada Market Aiya Village,,,,,,,,,OSSIDN05,110557,7.97,4.7
4.7377,7.61429,110559,Ijofi,,,racheal.olarewaju,,,eHA_Polio,2013/02/06 04:47:52+00,Ijofi Market,,,,,,,,,OSSIEW10,110559,7.61,4.74
4.7243,7.63364,110561,Irewolede,,,racheal.olarewaju,,,eHA_Polio,2013/02/06 04:47:52+00,Irewolede Market,,,,,,,,,OSSIEW06,110561,7.63,4.72
4.48328,7.82756,110563,Elerin,,,racheal.olarewaju,,,eHA_Polio,2013/02/06 04:47:52+00,Elerin Market,,,,,,,,,OSSEDE06,110563,7.83,4.48
4.77802,7.81694,110565,Otan Ile Main,,,racheal.olarewaju,,,eHA_Polio,2013/02/06 04:47:52+00,Otan Ile Main Market,,,,,,,,,OSSOBN10,110565,7.82,4.78
4.84146,7.83644,110566,Anaye Imesi Ile,,,racheal.olarewaju,,,eHA_Polio,2013/02/06 04:47:52+00,Anaye Market Imesi Ile,,,,,,,,,OSSOBN08,110566,7.84,4.84
4.89664,7.75848,110567,Owamiran,,,racheal.olarewaju,,,eHA_Polio,2013/02/06 04:47:52+00,Owamiran Market,,,,,,,,,OSSOBN02,110567,7.76,4.9
4.90804,7.83733,110568,Ajode Community Ayetoro,,,racheal.olarewaju,,,eHA_Polio,2013/02/06 04:47:52+00,Ajode Community Market Ayetoro,,,,,,,,,OSSOBN02,110568,7.84,4.91
4.81953,7.7548,110569,Esa Odo,,,racheal.olarewaju,,,eHA_Polio,2013/02/06 04:47:52+00,Esa Odo Market,,,,,,,,,OSSOBN01,110569,7.75,4.82
4.70907,7.69826,110570,Idoka,,,racheal.olarewaju,,,eHA_Polio,2013/02/06 04:47:52+00,Idoka Market,,,,,,,,,OSSOBN07,110570,7.7,4.71
4.70899,7.75126,110571,Ilase,,,racheal.olarewaju,,,eHA_Polio,2013/02/06 04:47:52+00,Ilase Market,,,,,,,,,OSSOBN07,110571,7.75,4.71
4.72821,7.7902,110572,Ibokun,,,racheal.olarewaju,,,eHA_Polio,2013/02/06 04:47:52+00,Ibokun Market,,,,,,,,,OSSOBN04,110572,7.79,4.73
4.62548,8.03061,110573,Faaji Maket,,,racheal.olarewaju,,,eHA_Polio,2013/02/06 04:47:52+00,Faaji Maket,,,,,,,,,OSSODN05,110573,8.03,4.63
4.64676,8.03633,110574,Obada Igbaye,,,racheal.olarewaju,,,eHA_Polio,2013/02/06 04:47:52+00,Obada Market Igbaye,,,,,,,,,OSSODN06,110574,8.04,4.65
4.64704,7.98385,110575,Orisunbare Inisa,,,racheal.olarewaju,,,eHA_Polio,2013/02/06 04:47:52+00,Orisunbare Market Inisa,,,,,,,,,OSSODN08,110575,7.98,4.65
4.59179,8.05074,110576,Atapa,,,racheal.olarewaju,,,eHA_Polio,2013/02/06 04:47:52+00,Atapa Market,,,,,,,,,OSSODN03,110576,8.05,4.59
4.69673,8.03635,110577,Obada Ijabe,,,racheal.olarewaju,,,eHA_Polio,2013/02/06 04:47:52+00,Obada Market Ijabe,,,,,,,,,OSSODN07,110577,8.04,4.7
4.24915,7.69737,110578,Obada Ogbagba,,,racheal.olarewaju,,,eHA_Polio,2013/02/06 04:47:52+00,Obada Market Ogbagba,,,,,,,,,OSSOUA08,110578,7.7,4.25
4.54543,7.78537,110580,Betty Ajiborisa,,,racheal.olarewaju,,,eHA_Polio,2013/02/06 04:47:52+00,Betty Market Ajiborisa,,,,,,,,,OSSOSO02,110580,7.79,4.55
4.57846,7.90199,110582,Owode Oba Oke,,,racheal.olarewaju,,,eHA_Polio,2013/02/06 04:47:52+00,Owode Market Oba Oke,,,,,,,,,OSSOLA06,110582,7.9,4.58
4.58149,7.90499,110583,St John Anglican Shopping Complex,,,racheal.olarewaju,,,eHA_Polio,2013/02/06 04:47:52+00,St John Anglican Shopping Complex,,,,,,,,,OSSOLA06,110583,7.9,4.58
4.81651,7.64699,110587,Iloko,,,racheal.olarewaju,,,eHA_Polio,2013/02/06 04:47:52+00,Iloko Market,,,,,,,,,OSSOIE09,110587,7.65,4.82
4.94961,7.4296,110589,Ikeji Arakeji,,,racheal.olarewaju,,,eHA_Polio,2013/02/06 04:47:52+00,Ikeji Arakeji Market,,,,,,,,,OSSOIE06,110589,7.43,4.95
4.89363,7.56847,110590,Erin Ijesa,,,racheal.olarewaju,,,eHA_Polio,2013/02/06 04:47:52+00,Erin Ijesa Market,,,,,,,,,OSSOIE02,110590,7.57,4.89
4.88297,7.55109,110591,Erin Oke,,,racheal.olarewaju,,,eHA_Polio,2013/02/06 04:47:52+00,Erin Oke Market,,,,,,,,,OSSOIE03,110591,7.55,4.88
4.92431,7.48537,110592,Ikeji Ile,,,racheal.olarewaju,,,eHA_Polio,2013/02/06 04:47:52+00,Ikeji Ile Market,,,,,,,,,OSSOIE08,110592,7.49,4.92
4.54428,7.77675,110595,Akintedo,,,racheal.olarewaju,,,eHA_Polio,2013/02/06 04:47:52+00,Akintedo Market,,,,,,,,,OSSOSO02,110595,7.78,4.54
3.91154,7.53353,110596,Saw Mill Plank,,,racheal.olarewaju,,,eHA_Polio,2013/02/06 04:47:52+00,Saw Mill Plank Market,,,,,,,,,OYSAKE08,110596,7.53,3.91
3.42092,8.50237,110597,Mafowuro,,,racheal.olarewaju,,,eHA_Polio,2013/02/06 04:47:52+00,Mafowuro Market,,,,,,,,,OYSATIB01,110597,8.5,3.42
3.42141,8.50576,110598,Kraa Cattle,,,racheal.olarewaju,,,eHA_Polio,2013/02/06 04:47:52+00,Kraa Cattle Market,,,,,,,,,OYSATIB01,110598,8.51,3.42
3.32739,8.43977,110599,Oja Isu,,,racheal.olarewaju,,,eHA_Polio,2013/02/06 04:47:52+00,Oja Isu Market,,,,,,,,,OYSATIB08,110599,8.44,3.33
4.04857,7.37748,110600,Egbeda Egbeda Village,,,racheal.olarewaju,,,eHA_Polio,2013/02/06 04:47:52+00,Egbeda Market Egbeda Village,,,,,,,,,OYSEGA04,110600,7.38,4.05
4.01255,7.42011,110601,Ikumapayi,,,racheal.olarewaju,,,eHA_Polio,2013/02/06 04:47:52+00,Ikumapayi Market,,,,,,,,,OYSEGA07,110601,7.42,4.01
3.95504,7.3943,110602,Bolaige International,,,racheal.olarewaju,,,eHA_Polio,2013/02/06 04:47:52+00,Bolaige International Market,,,,,,,,,OYSEGA02,110602,7.39,3.96
3.942,7.39047,110603,Saw Mill,,,racheal.olarewaju,,,eHA_Polio,2013/02/06 04:47:52+00,Saw Mill Market,,,,,,,,,OYSEGA08,110603,7.39,3.94
3.946,7.37818,110604,Ogbere Idi Osan,,,racheal.olarewaju,,,eHA_Polio,2013/02/06 04:47:52+00,Ogbere Idi Osan Market,,,,,,,,,OYSEGA02,110604,7.38,3.95
3.93399,7.38096,110605,Dalemo,,,racheal.olarewaju,,,eHA_Polio,2013/02/06 04:47:52+00,Dalemo Market,,,,,,,,,OYSINE01,110605,7.38,3.93
3.88453,7.38752,110607,Ogunpa International,,,racheal.olarewaju,,,eHA_Polio,2013/02/06 04:47:52+00,Ogunpa International Market,,,,,,,,,OYSINW06,110607,7.39,3.88
3.93554,7.40355,110617,Olowotifowo Samu Shopping Complex Iwo Road Barrack,,,racheal.olarewaju,,,eHA_Polio,2013/02/06 04:47:52+00,Olowotifowo Samu Shopping Complex Iwo Road Barrack,,,,,,,,,OYSINE05,110617,7.4,3.94
3.91432,7.38908,110621,Irefin,,,racheal.olarewaju,,,eHA_Polio,2013/02/06 04:47:52+00,Irefin Market,,,,,,,,,OYSINE11,110621,7.39,3.91
3.91599,7.38855,110622,Baba Isale,,,racheal.olarewaju,,,eHA_Polio,2013/02/06 04:47:52+00,Baba Isale Market,,,,,,,,,OYSINE11,110622,7.39,3.92
3.90837,7.38811,110623,Oje Central,,,racheal.olarewaju,,,eHA_Polio,2013/02/06 04:47:52+00,Oje Central Market,,,,,,,,,OYSINE10,110623,7.39,3.91
3.90939,7.37694,110624,Ojagbo,,,racheal.olarewaju,,,eHA_Polio,2013/02/06 04:47:52+00,Ojagbo Market,,,,,,,,,OYSINE09,110624,7.38,3.91
3.90298,7.37279,110625,Oranyan,,,racheal.olarewaju,,,eHA_Polio,2013/02/06 04:47:52+00,Oranyan Market,,,,,,,,,OYSINE12,110625,7.37,3.9
3.90543,7.38162,110626,Alafara Aso Ofi,,,racheal.olarewaju,,,eHA_Polio,2013/02/06 04:47:52+00,Alafara Aso Ofi Market,,,,,,,,,OYSINE02,110626,7.38,3.91
3.90753,7.38707,110627,Aderogba,,,racheal.olarewaju,,,eHA_Polio,2013/02/06 04:47:52+00,Aderogba Market,,,,,,,,,OYSINE10,110627,7.39,3.91
3.90594,7.38693,110628,Temidire Temidire,,,racheal.olarewaju,,,eHA_Polio,2013/02/06 04:47:52+00,Temidire Market Temidire,,,,,,,,,OYSINE10,110628,7.39,3.91
3.88151,7.37404,110630,Oke Mdo,,,racheal.olarewaju,,,eHA_Polio,2013/02/06 04:47:52+00,Oke Mdo Market,,,,,,,,,OYSISW05,110630,7.37,3.88
3.88416,7.38149,110631,Labatown International,,,racheal.olarewaju,,,eHA_Polio,2013/02/06 04:47:52+00,Labatown International Market,,,,,,,,,OYSISW03,110631,7.38,3.88
3.87163,7.38872,110632,Alesinloye,,,racheal.olarewaju,,,eHA_Polio,2013/02/06 04:47:52+00,Alesinloye Market,,,,,,,,,OYSINW02,110632,7.39,3.87
3.28998,7.4302,110633,Tomobowo,,,racheal.olarewaju,,,eHA_Polio,2013/02/06 04:47:52+00,Tomobowo Market,,,,,,,,,OYSICL02,110633,7.43,3.29
3.27481,7.43748,110634,Isale Oba,,,racheal.olarewaju,,,eHA_Polio,2013/02/06 04:47:52+00,Isale Oba Market,,,,,,,,,OYSICL08,110634,7.44,3.27
3.28555,7.44414,110635,Onilado,,,racheal.olarewaju,,,eHA_Polio,2013/02/06 04:47:52+00,Onilado Market,,,,,,,,,OYSICL08,110635,7.44,3.29
3.51542,7.5244,110636,Okolo,,,racheal.olarewaju,,,eHA_Polio,2013/02/06 04:47:52+00,Okolo Market,,,,,,,,,OYSIBE10,110636,7.52,3.52
3.40082,7.55742,110637,Obada Eruwa,,,racheal.olarewaju,,,eHA_Polio,2013/02/06 04:47:52+00,Obada Market Eruwa,,,,,,,,,OYSIBE08,110637,7.56,3.4
3.45195,7.59399,110638,Olorunda Okeotun Lanlate,,,racheal.olarewaju,,,eHA_Polio,2013/02/06 04:47:52+00,Olorunda Okeotun Lanlate,,,,,,,,,OYSIBE04,110638,7.59,3.45
3.21936,7.54117,110639,Oke Ogun,,,racheal.olarewaju,,,eHA_Polio,2013/02/06 04:47:52+00,Oke Ogun Market,,,,,,,,,OYSIBAN02,110639,7.54,3.22
3.22937,7.5639,110640,Ago Tapa,,,racheal.olarewaju,,,eHA_Polio,2013/02/06 04:47:52+00,Ago Market Tapa,,,,,,,,,OYSIBAN10,110640,7.56,3.23
3.20208,7.60683,110641,Oye,,,racheal.olarewaju,,,eHA_Polio,2013/02/06 04:47:52+00,Oye Market,,,,,,,,,OYSIBAN07,110641,7.61,3.2
3.8462,9.10037,110642,Tijaruyyah,,,racheal.olarewaju,,,eHA_Polio,2013/02/06 04:47:52+00,Tijaruyyah Market,,,,,,,,,OYSIRO06,110642,9.1,3.85
3.8509,9.06789,110643,Obada Ultra Modern,,,racheal.olarewaju,,,eHA_Polio,2013/02/06 04:47:52+00,Obada Ultra Modern Market,,,,,,,,,OYSIRO10,110643,9.07,3.85
3.95419,8.97617,110644,Sooro,,,racheal.olarewaju,,,eHA_Polio,2013/02/06 04:47:52+00,Sooro Market,,,,,,,,,OYSIRO10,110644,8.98,3.95
3.23748,8.22939,110646,Eemo,,,racheal.olarewaju,,,eHA_Polio,2013/02/06 04:47:52+00,Eemo Market,,,,,,,,,OYSIWU02,110646,8.23,3.24
3.51199,8.13026,110647,Eleyinpo Area,,,racheal.olarewaju,,,eHA_Polio,2013/02/06 04:47:52+00,Eleyinpo Area Market,,,,,,,,,OYSIWU03,110647,8.13,3.51
3.22229,7.83492,110651,Central Elekokan,,,racheal.olarewaju,,,eHA_Polio,2013/02/06 04:47:52+00,Central Market Elekokan,,,,,,,,,OYSIJA04,110651,7.83,3.22
3.43474,8.04132,110652,Binukonu,,,racheal.olarewaju,,,eHA_Polio,2013/02/06 04:47:52+00,Binukonu Market,,,,,,,,,OYSKAA11,110652,8.04,3.43
3.35152,8.02797,110653,Isia,,,racheal.olarewaju,,,eHA_Polio,2013/02/06 04:47:52+00,Isia Market,,,,,,,,,OYSKAA08,110653,8.03,3.35
3.374,7.99262,110654,Isemile,,,racheal.olarewaju,,,eHA_Polio,2013/02/06 04:47:52+00,Isemile Market,,,,,,,,,OYSKAA07,110654,7.99,3.37
3.96817,7.40202,110655,Oluyole Marmet,,,racheal.olarewaju,,,eHA_Polio,2013/02/06 04:47:52+00,Oluyole Marmet,,,,,,,,,OYSEGA02,110655,7.4,3.97
3.91867,7.3401,110656,Olorunkemi,,,racheal.olarewaju,,,eHA_Polio,2013/02/06 04:47:52+00,Olorunkemi Market,,,,,,,,,OYSINE07,110656,7.34,3.92
3.96401,7.30653,110657,Ayegun,,,racheal.olarewaju,,,eHA_Polio,2013/02/06 04:47:52+00,Ayegun Market,,,,,,,,,OYSOYE04,110657,7.31,3.96
3.95331,7.31967,110658,Apadi Community,,,racheal.olarewaju,,,eHA_Polio,2013/02/06 04:47:52+00,Apadi Community Market,,,,,,,,,OYSOYE07,110658,7.32,3.95
3.92489,7.35037,110659,Olode,,,racheal.olarewaju,,,eHA_Polio,2013/02/06 04:47:52+00,Olode Market,,,,,,,,,OYSINE07,110659,7.35,3.92
3.96292,7.13406,110660,Temidire Temidire Sanyo,,,racheal.olarewaju,,,eHA_Polio,2013/02/06 04:47:52+00,Temidire Market Temidire Sanyo,,,,,,,,,OYSOYE06,110660,7.13,3.96
3.85664,7.26861,110661,Alomoja,,,racheal.olarewaju,,,eHA_Polio,2013/02/06 04:47:52+00,Alomoja Market,,,,,,,,,OYSOYE09,110661,7.27,3.86
3.95147,7.34656,110662,Olunloyo,,,racheal.olarewaju,,,eHA_Polio,2013/02/06 04:47:52+00,Olunloyo Market,,,,,,,,,OYSONA10,110662,7.35,3.95
3.75678,8.85379,110663,Bonni,,,racheal.olarewaju,,,eHA_Polio,2013/02/06 04:47:52+00,Bonni Market,,,,,,,,,OYSOLE03,110663,8.85,3.76
3.73304,8.82929,110664,Mafoku Osol Oba,,,racheal.olarewaju,,,eHA_Polio,2013/02/06 04:47:52+00,Mafoku Osol Oba Market,,,,,,,,,OYSOLE06,110664,8.83,3.73
4.20777,8.32503,110665,Tewure,,,racheal.olarewaju,,,eHA_Polio,2013/02/06 04:47:52+00,Tewure Market,,,,,,,,,OYSOIE10,110665,8.33,4.21
4.24523,8.35426,110666,Onire Shop Complex,,,racheal.olarewaju,,,eHA_Polio,2013/02/06 04:47:52+00,Onire Shop Complex,,,,,,,,,OYSOIE08,110666,8.35,4.25
3.92382,7.83335,110667,Eunset,,,racheal.olarewaju,,,eHA_Polio,2013/02/06 04:47:52+00,Eunset Market,,,,,,,,,OYSOWT02,110667,7.83,3.92
3.91394,7.81088,110668,Irepodun Community,,,racheal.olarewaju,,,eHA_Polio,2013/02/06 04:47:52+00,Irepodun Community Market,,,,,,,,,OYSOWT09,110668,7.81,3.91
3.74301,7.74241,110669,Ifesowapo,,,racheal.olarewaju,,,eHA_Polio,2013/02/06 04:47:52+00,Ifesowapo Market,,,,,,,,,OYSAFO09,110669,7.74,3.74
3.57207,8.52806,110670,Ogunlere,,,racheal.olarewaju,,,eHA_Polio,2013/02/06 04:47:52+00,Ogunlere Market,,,,,,,,,OYSATIB10,110670,8.53,3.57
3.65152,8.63291,110671,Sepeteri Mari,,,racheal.olarewaju,,,eHA_Polio,2013/02/06 04:47:52+00,Sepeteri Mari Market,,,,,,,,,OYSSET07,110671,8.63,3.65
3.40108,8.58477,110672,Aroje,,,racheal.olarewaju,,,eHA_Polio,2013/02/06 04:47:52+00,Aroje Market,,,,,,,,,OYSSWT11,110672,8.58,3.4
3.39781,8.67782,110673,Sango Main,,,racheal.olarewaju,,,eHA_Polio,2013/02/06 04:47:52+00,Sango Main Market,,,,,,,,,OYSSWT10,110673,8.68,3.4
3.39423,8.67725,110674,Agbo Ile,,,racheal.olarewaju,,,eHA_Polio,2013/02/06 04:47:52+00,Agbo Ile Market,,,,,,,,,OYSSWT07,110674,8.68,3.39
3.3813,8.67368,110675,Asunara,,,racheal.olarewaju,,,eHA_Polio,2013/02/06 04:47:52+00,Asunara Market,,,,,,,,,OYSSWT01,110675,8.67,3.38
3.44352,8.75987,110676,Alaye,,,racheal.olarewaju,,,eHA_Polio,2013/02/06 04:47:52+00,Alaye Market,,,,,,,,,OYSSWT04,110676,8.76,3.44
3.38325,8.66878,110677,Adabo,,,racheal.olarewaju,,,eHA_Polio,2013/02/06 04:47:52+00,Adabo Market,,,,,,,,,OYSSWT01,110677,8.67,3.38
3.3366,8.7571,110678,Yemere,,,racheal.olarewaju,,,eHA_Polio,2013/02/06 04:47:52+00,Yemere Market,,,,,,,,,OYSSWT04,110678,8.76,3.34
3.27469,8.79535,110679,Umaru Ibaruba,,,racheal.olarewaju,,,eHA_Polio,2013/02/06 04:47:52+00,Umaru Ibaruba Market,,,,,,,,,OYSSWT05,110679,8.8,3.27
3.19189,8.7513,110680,Owode Owode Kekere,,,racheal.olarewaju,,,eHA_Polio,2013/02/06 04:47:52+00,Owode Market Owode Kekere,,,,,,,,,OYSSWT05,110680,8.75,3.19
3.15389,8.74472,110681,Gbeepakan,,,racheal.olarewaju,,,eHA_Polio,2013/02/06 04:47:52+00,Gbeepakan Market,,,,,,,,,OYSSWT05,110681,8.74,3.15
3.03667,8.62629,110682,Orisunbare,,,racheal.olarewaju,,,eHA_Polio,2013/02/06 04:47:52+00,Orisunbare Market,,,,,,,,,OYSSWT05,110682,8.63,3.04
3.41347,8.6224,110683,Abimbola,,,racheal.olarewaju,,,eHA_Polio,2013/02/06 04:47:52+00,Abimbola Market,,,,,,,,,OYSSWT03,110683,8.62,3.41
11.17842,9.84334,110684,Banganje,,,racheal.olarewaju,,,OSGOF,2017/08/25 02:04:38+00,Banganje Market,,,,,,,,,GMSBLR08,110684,9.84,11.18
11.21125,9.9499,110685,Sunday Kada Uku,,,racheal.olarewaju,,,OSGOF,2017/08/25 02:04:38+00,Sunday Market Kada Uku,,,,,,,,,GMSBLR04,110685,9.95,11.21
11.04126,9.72372,110686,Friday Kwaya,,,racheal.olarewaju,,,OSGOF,2017/08/25 02:04:38+00,Friday Market Kwaya,,,,,,,,,GMSBLR10,110686,9.72,11.04
11.04,9.80287,110687,Wedesday,,,racheal.olarewaju,,,OSGOF,2017/08/25 02:04:38+00,Wedesday Market,,,,,,,,,GMSBLR07,110687,9.8,11.04
10.97577,9.7539,110688,Tuesday Panguru,,,racheal.olarewaju,,,OSGOF,2017/08/25 02:04:38+00,Tuesday Market Panguru,,,,,,,,,GMSBLR10,110688,9.75,10.98
11.15872,9.80449,110689,Tuesday Potede,,,racheal.olarewaju,,,OSGOF,2017/08/25 02:04:38+00,Tuesday Market Potede,,,,,,,,,GMSBLR07,110689,9.8,11.16
11.18922,9.84471,110690,Wednesday,,,racheal.olarewaju,,,OSGOF,2017/08/25 02:04:38+00,Wednesday Market,,,,,,,,,GMSBLR02,110690,9.84,11.19
11.05881,9.69916,110691,Friday Tudu,,,racheal.olarewaju,,,OSGOF,2017/08/25 02:04:38+00,Friday Market Tudu,,,,,,,,,GMSBLR10,110691,9.7,11.06
11.11845,9.9219,110692,Monday World Bank,,,racheal.olarewaju,,,OSGOF,2017/08/25 02:04:38+00,Monday Market World Bank,,,,,,,,,GMSBLR06,110692,9.92,11.12
11.1895,10.2734,110693,Bamusa,,,racheal.olarewaju,,,OSGOF,2017/08/25 02:04:38+00,Bamusa Market,,,,,,,,,GMSGME10,110693,10.27,11.19
11.18324,10.27588,110694,Mammy Army,,,racheal.olarewaju,,,OSGOF,2017/08/25 02:04:38+00,Mammy Army,,,,,,,,,GMSGME10,110694,10.28,11.18
11.13869,10.2868,110695,Bauchi Road,,,racheal.olarewaju,,,OSGOF,2017/08/25 02:04:38+00,Bauchi Road Market,,,,,,,,,GMSGME01,110695,10.29,11.14
11.1668,10.27015,110696,Goat and Sheep,,,racheal.olarewaju,,,OSGOF,2017/08/25 02:04:38+00,Goat and Sheep Market,,,,,,,,,GMSGME10,110696,10.27,11.17
11.16687,10.28858,110697,Gombe Local Government Shopping Complex,,,racheal.olarewaju,,,OSGOF,2017/08/25 02:04:38+00,Gombe Local Government Shopping Complex,,,,,,,,,GMSGME06,110697,10.29,11.17
11.16958,10.30351,110698,Kasunan Mata Jauro Abare,,,racheal.olarewaju,,,OSGOF,2017/08/25 02:04:38+00,Kasunan Mata Jauro Abare,,,,,,,,,GMSGME11,110698,10.3,11.17
11.17007,10.30476,110699,Government Shephered Jauro Abare,,,racheal.olarewaju,,,OSGOF,2017/08/25 02:04:38+00,Government Shephered Market Jauro Abare,,,,,,,,,GMSGME11,110699,10.3,11.17
11.17634,10.30959,110700,Malam Inna Mini,,,racheal.olarewaju,,,OSGOF,2017/08/25 02:04:38+00,Malam Inna Mini Market,,,,,,,,,GMSGME11,110700,10.31,11.18
11.32628,9.94267,110701,Gujuba,,,racheal.olarewaju,,,OSGOF,2017/08/25 02:04:38+00,Gujuba Market,,,,,,,,,GMSKLT06,110701,9.94,11.33
11.4689,9.91679,110702,Monday Kalti,,,racheal.olarewaju,,,OSGOF,2017/08/25 02:04:38+00,Monday Market Kalti,,,,,,,,,GMSKLT06,110702,9.92,11.47
11.26975,9.93303,110703,Limde Potera,,,racheal.olarewaju,,,OSGOF,2017/08/25 02:04:38+00,Limde Potera Market,,,,,,,,,GMSKLT07,110703,9.93,11.27
11.30943,9.8159,110704,Kaltungo Central,,,racheal.olarewaju,,,OSGOF,2017/08/25 02:04:38+00,Kaltungo Central Market,,,,,,,,,GMSKLT05,110704,9.82,11.31
8.76935,9.44928,110705,Kakuruk Square,,,racheal.olarewaju,,,OSGOF,2017/08/25 02:04:38+00,Kakuruk Market Square,,,,,,,,,PLSBLD05,110705,9.45,8.77
8.99221,9.47196,110706,Central Marit,,,racheal.olarewaju,,,OSGOF,2017/08/25 02:04:38+00,Central Market Marit,,,,,,,,,PLSBLD11,110706,9.47,8.99
8.89355,9.54012,110707,Barkin Central,,,racheal.olarewaju,,,OSGOF,2017/08/25 02:04:38+00,Barkin Central Market,,,,,,,,,PLSBLD15,110707,9.54,8.89
8.68257,9.84984,110708,Central Miango,,,racheal.olarewaju,,,OSGOF,2017/08/25 02:04:38+00,Central Market Miango,,,,,,,,,PLSBSA17,110708,9.85,8.68
8.79824,10.24313,110709,Central Jengre,,,racheal.olarewaju,,,OSGOF,2017/08/25 02:04:38+00,Central Market Jengre,,,,,,,,,PLSBSA08,110709,10.24,8.8
9.954008,9.2872,110710,Wum,,,racheal.olarewaju,,,OSGOF,2017/08/25 02:04:38+00,Wum Market,,,,,,,,,PLSDNG15,110710,9.29,9.95
10.07764,9.36119,110711,Jarmai,,,racheal.olarewaju,,,OSGOF,2017/08/25 02:04:38+00,Jarmai Market,,,,,,,,,PLSDNG11,110711,9.36,10.08
9.79041,9.41756,110712,Kasuwan Guzuk,,,racheal.olarewaju,,,OSGOF,2017/08/25 02:04:38+00,Kasuwan Guzuk,,,,,,,,,PLSDNG09,110712,9.42,9.79
9.70047,9.35534,110713,Old Amper,,,racheal.olarewaju,,,OSGOF,2017/08/25 02:04:38+00,Old Market Amper,,,,,,,,,PLSKWK04,110713,9.36,9.7
9.57193,9.42989,110714,Dawaki,,,racheal.olarewaju,,,OSGOF,2017/08/25 02:04:38+00,Dawaki Market,,,,,,,,,PLSKWK05,110714,9.43,9.57
9.89314,9.19252,110715,Pil Gani,,,racheal.olarewaju,,,OSGOF,2017/08/25 02:04:38+00,Pil Gani Market,,,,,,,,,PLSLGT13,110715,9.19,9.89
9.18782,9.29875,110716,Ampang West,,,racheal.olarewaju,,,OSGOF,2017/08/25 02:04:38+00,Ampang West Market,,,,,,,,,PLSMGU01,110716,9.3,9.19
9.19957,9.33389,110717,Kerang Square,,,racheal.olarewaju,,,OSGOF,2017/08/25 02:04:38+00,Kerang Market Square,,,,,,,,,PLSMGU12,110717,9.33,9.2
9.2738,9.40371,110718,Pushit,,,racheal.olarewaju,,,OSGOF,2017/08/25 02:04:38+00,Pushit Market,,,,,,,,,PLSMGU20,110718,9.4,9.27
9.13774,9.49045,110719,Mangu,,,racheal.olarewaju,,,OSGOF,2017/08/25 02:04:38+00,Mangu Market,,,,,,,,,PLSMGU15,110719,9.49,9.14
9.23237,9.59486,110720,New Square Gindiri,,,racheal.olarewaju,,,OSGOF,2017/08/25 02:04:38+00,New Market Square Gindiri,,,,,,,,,PLSMGU06,110720,9.59,9.23
9.15352,9.67625,110721,Kadunu Square,,,racheal.olarewaju,,,OSGOF,2017/08/25 02:04:38+00,Kadunu Market Square,,,,,,,,,PLSMGU10,110721,9.68,9.15
9.48481,9.02314,110722,Central Piapung,,,racheal.olarewaju,,,OSGOF,2017/08/25 02:04:38+00,Central Market Piapung,,,,,,,,,PLSTNK15,110722,9.02,9.48
9.28819,8.61386,110723,Bakin Ciyawa,,,racheal.olarewaju,,,OSGOF,2017/08/25 02:04:38+00,Bakin Ciyawa Market,,,,,,,,,PLSQAP16,110723,8.61,9.29
9.09224,8.68511,110724,Namu Central,,,racheal.olarewaju,,,OSGOF,2017/08/25 02:04:38+00,Namu Central Market,,,,,,,,,PLSQAP18,110724,8.69,9.09
9.2328,8.7173,110725,Gidan Dabat Yam,,,racheal.olarewaju,,,OSGOF,2017/08/25 02:04:38+00,Gidan Dabat Yam Market,,,,,,,,,PLSQAP10,110725,8.72,9.23
9.29918,8.77594,110726,Kurgwi Yam,,,racheal.olarewaju,,,OSGOF,2017/08/25 02:04:38+00,Kurgwi Yam Market,,,,,,,,,PLSQAP07,110726,8.78,9.3
9.29055,8.7809,110727,Kurgwi,,,racheal.olarewaju,,,OSGOF,2017/08/25 02:04:38+00,Kurgwi Market,,,,,,,,,PLSQAP08,110727,8.78,9.29
9.28617,8.91351,110728,Shang Fuup Yam,,,racheal.olarewaju,,,OSGOF,2017/08/25 02:04:38+00,Shang Fuup Yam Market,,,,,,,,,PLSQAP16,110728,8.91,9.29
8.72927,9.61355,110729,Hoss Square,,,racheal.olarewaju,,,OSGOF,2017/08/25 02:04:38+00,Hoss Market Square,,,,,,,,,PLSRYM08,110729,9.61,8.73
8.63686,9.65364,110730,Central Square Dantse,,,racheal.olarewaju,,,OSGOF,2017/08/25 02:04:38+00,Central Market Square Dantse,,,,,,,,,PLSRYM03,110730,9.65,8.64
9.89275,9.01741,110731,Guiwan Kogi Square,,,racheal.olarewaju,,,OSGOF,2017/08/25 02:04:38+00,Guiwan Kogi Market Square,,,,,,,,,PLSWAS10,110731,9.02,9.89
10.06075,9.07536,110732,Mavo Square,,,racheal.olarewaju,,,OSGOF,2017/08/25 02:04:38+00,Mavo Market Square,,,,,,,,,PLSWAS14,110732,9.08,10.06
10.06808,9.07546,110733,Cattle Mavo,,,racheal.olarewaju,,,OSGOF,2017/08/25 02:04:38+00,Cattle Market Mavo,,,,,,,,,PLSWAS14,110733,9.08,10.07
10.57359,9.23858,110734,Kampani Square,,,racheal.olarewaju,,,OSGOF,2017/08/25 02:04:38+00,Kampani Market Square,,,,,,,,,PLSWAS08,110734,9.24,10.57
10.31335,9.29037,110735,Gaji Square,,,racheal.olarewaju,,,OSGOF,2017/08/25 02:04:38+00,Gaji Market Square,,,,,,,,,PLSWAS15,110735,9.29,10.31
10.27204,9.39681,110736,Luli Square,,,racheal.olarewaju,,,OSGOF,2017/08/25 02:04:38+00,Luli Market Square,,,,,,,,,PLSWAS20,110736,9.4,10.27
7.97397,6.72288,110737,Odoken,,,racheal.olarewaju,,,OSGOF,2017/07/13 04:25:58+00,Odoken Market,,,,,,,,,BNSGMU10,110737,6.72,7.97
8.03941,6.86069,110738,Rijo,,,racheal.olarewaju,,,OSGOF,2017/07/13 04:25:58+00,Rijo Market,,,,,,,,,BNSGMU07,110738,6.86,8.04
7.82358,7.96697,110739,Oweto,,,racheal.olarewaju,,,OSGOF,2017/07/13 04:25:58+00,Oweto Market,,,,,,,,,BNSGTU10,110739,7.97,7.82
8.98825,7.58754,110740,Anbar 2,,,racheal.olarewaju,,,OSGOF,2017/07/13 04:25:58+00,Anbar II Market,,,,,,,,,BNSBKB11,110740,7.59,8.99
9.02063,7.51444,110741,Mbaanom I,,,racheal.olarewaju,,,OSGOF,2017/07/13 04:25:58+00,Mbaanom I Market,,,,,,,,,BNSBKB11,110741,7.51,9.02
9.15311,7.44234,110742,Mbakyusa,,,racheal.olarewaju,,,OSGOF,2017/07/13 04:25:58+00,Mbakyusa Market,,,,,,,,,BNSBKB05,110742,7.44,9.15
9.21795,7.20507,110743,Abwa Town,,,racheal.olarewaju,,,OSGOF,2017/07/13 04:25:58+00,Abwa Town Market,,,,,,,,,BNSBKB04,110743,7.21,9.22
9.32451,7.38054,110744,Uga,,,racheal.olarewaju,,,OSGOF,2017/07/13 04:25:58+00,Uga Market,,,,,,,,,BNSBKB06,110744,7.38,9.32
8.73736,7.22276,110745,Mbazenke,,,racheal.olarewaju,,,OSGOF,2017/07/13 04:25:58+00,Mbazenke Market,,,,,,,,,BNSGBK08,110745,7.22,8.74
8.8541,7.2967,110746,Mbashavkaa,,,racheal.olarewaju,,,OSGOF,2017/07/13 04:25:58+00,Mbashavkaa Market,,,,,,,,,BNSGBK08,110746,7.3,8.85
8.86878,7.36806,110747,Abetse,,,racheal.olarewaju,,,OSGOF,2017/07/13 04:25:58+00,Abetse Market,,,,,,,,,BNSGBK12,110747,7.37,8.87
8.94075,7.47587,110748,Mbakater,,,racheal.olarewaju,,,OSGOF,2017/07/13 04:25:58+00,Mbakater Market,,,,,,,,,BNSGBK14,110748,7.48,8.94
9.14367,7.30891,110749,Mbaashima,,,racheal.olarewaju,,,OSGOF,2017/07/13 04:25:58+00,Mbaashima Market,,,,,,,,,BNSGBK05,110749,7.31,9.14
8.52177,8.10334,110750,Udei,,,racheal.olarewaju,,,OSGOF,2017/07/13 04:25:58+00,Udei Market,,,,,,,,,BNSYGJ07,110750,8.1,8.52
8.80857,7.96387,110751,Kaseyo,,,racheal.olarewaju,,,OSGOF,2017/07/13 04:25:58+00,Kaseyo Market,,,,,,,,,BNSYGJ10,110751,7.96,8.81
8.89743,8.02665,110752,Torkuka Settlement,,,racheal.olarewaju,,,OSGOF,2017/07/13 04:25:58+00,Torkuka Settlement Market,,,,,,,,,BNSYGJ04,110752,8.03,8.9
8.96275,7.72154,110753,Tyulen,,,racheal.olarewaju,,,OSGOF,2017/07/13 04:25:58+00,Tyulen Market,,,,,,,,,BNSYGJ02,110753,7.72,8.96
8.34819,7.18558,110754,Kpaatu,,,racheal.olarewaju,,,OSGOF,2017/07/13 04:25:58+00,Kpaatu Market,,,,,,,,,BNSALD05,110754,7.19,8.35
8.43305,7.09333,110755,Adeji,,,racheal.olarewaju,,,OSGOF,2017/07/13 04:25:58+00,Adeji Market,,,,,,,,,BNSALD01,110755,7.09,8.43
9.36341,7.22303,110756,Yav Uji,,,racheal.olarewaju,,,OSGOF,2017/07/13 04:25:58+00,Yav Uji Market,,,,,,,,,BNSKAL01,110756,7.22,9.36
9.39261,7.12708,110757,Mbanyiashe,,,racheal.olarewaju,,,OSGOF,2017/07/13 04:25:58+00,Mbanyiashe Market,,,,,,,,,BNSKAL08,110757,7.13,9.39
9.44312,7.30314,110758,Mbadajo,,,racheal.olarewaju,,,OSGOF,2017/07/13 04:25:58+00,Mbadajo Market,,,,,,,,,BNSKAL03,110758,7.3,9.44
9.57909,7.22066,110759,Harga,,,racheal.olarewaju,,,OSGOF,2017/07/13 04:25:58+00,Harga Market,,,,,,,,,BNSKAL04,110759,7.22,9.58
9.7908,7.44694,110760,Senga,,,racheal.olarewaju,,,OSGOF,2017/07/13 04:25:58+00,Senga Market,,,,,,,,,BNSUKM13,110760,7.45,9.79
8.57086,7.14325,110761,Gungul,,,racheal.olarewaju,,,OSGOF,2017/07/13 04:25:58+00,Gungul Market,,,,,,,,,BNSTSE03,110761,7.14,8.57
8.84641,6.90147,110762,Wuese,,,racheal.olarewaju,,,OSGOF,2017/07/13 04:25:58+00,Wuese Market,,,,,,,,,BNSTSE10,110762,6.9,8.85
9.36442,6.87834,110763,Vandegh,,,racheal.olarewaju,,,OSGOF,2017/07/13 04:25:58+00,Vandegh Market,,,,,,,,,BNSWDP06,110763,6.88,9.36
9.51777,7.01147,110764,Ngenev II,,,racheal.olarewaju,,,OSGOF,2017/07/13 04:25:58+00,Ngenev II Market,,,,,,,,,BNSWDP05,110764,7.01,9.52
9.53465,7.05229,110765,Hyembe Tomataan,,,racheal.olarewaju,,,OSGOF,2017/07/13 04:25:58+00,Hyembe Tomataan Market,,,,,,,,,BNSKAL08,110765,7.05,9.53
9.03782,7.80319,110766,Mbanyager II,,,racheal.olarewaju,,,OSGOF,2017/07/13 04:25:58+00,Mbanyager II Market,,,,,,,,,BNSGBG07,110766,7.8,9.04
9.1674,7.68577,110767,Mbayam I,,,racheal.olarewaju,,,OSGOF,2017/07/13 04:25:58+00,Mbayam I Market,,,,,,,,,BNSGBG07,110767,7.69,9.17
9.21054,7.73244,110768,Yangen,,,racheal.olarewaju,,,OSGOF,2017/07/13 04:25:58+00,Yangen Market,,,,,,,,,BNSGBG02,110768,7.73,9.21
9.22319,7.70125,110769,Mbakulak I,,,racheal.olarewaju,,,OSGOF,2017/07/13 04:25:58+00,Mbakulak I Market,,,,,,,,,BNSGBG09,110769,7.7,9.22
9.25767,7.69979,110770,Mbakande,,,racheal.olarewaju,,,OSGOF,2017/07/13 04:25:58+00,Mbakande Market,,,,,,,,,BNSGBG09,110770,7.7,9.26
9.34213,7.52894,110771,Mbakuugh,,,racheal.olarewaju,,,OSGOF,2017/07/13 04:25:58+00,Mbakuugh Market,,,,,,,,,BNSGBG03,110771,7.53,9.34
9.35784,7.79227,110772,Mbaakenawe I,,,racheal.olarewaju,,,OSGOF,2017/07/13 04:25:58+00,Mbaakenawe I Market,,,,,,,,,BNSGBG08,110772,7.79,9.36
9.44849,7.52741,110773,Ruamnyam,,,racheal.olarewaju,,,OSGOF,2017/07/13 04:25:58+00,Ruamnyam Market,,,,,,,,,BNSGBG01,110773,7.53,9.45
9.47024,7.60056,110774,Mbamondo,,,racheal.olarewaju,,,OSGOF,2017/07/13 04:25:58+00,Mbamondo Market,,,,,,,,,BNSGBG03,110774,7.6,9.47
9.50881,7.54735,110775,Amakwa,,,racheal.olarewaju,,,OSGOF,2017/07/13 04:25:58+00,Amakwa Market,,,,,,,,,BNSUKM05,110775,7.55,9.51
8.31791,7.09047,110776,Igwe,,,racheal.olarewaju,,,OSGOF,2017/07/13 04:25:58+00,Igwe Market,,,,,,,,,BNSBRT08,110776,7.09,8.32
8.36402,7.07066,110777,Igbegi Ito,,,racheal.olarewaju,,,OSGOF,2017/07/13 04:25:58+00,Igbegi Ito Market,,,,,,,,,BNSBRT05,110777,7.07,8.36
8.18902,6.89904,110778,Okonche I,,,racheal.olarewaju,,,OSGOF,2017/07/13 04:25:58+00,Okonche I Market,,,,,,,,,BNSJUX04,110778,6.9,8.19
8.33999,6.79819,110779,Ikwokwu,,,racheal.olarewaju,,,OSGOF,2017/07/13 04:25:58+00,Ikwokwu Market,,,,,,,,,BNSJUX09,110779,6.8,8.34
7.77032,7.07699,110780,Alaglan Aidogodo,,,racheal.olarewaju,,,OSGOF,2017/07/13 04:25:58+00,Alaglan Aidogodo Market,,,,,,,,,BNSPKG09,110780,7.08,7.77
7.77653,7.05593,110781,Onagbe,,,racheal.olarewaju,,,OSGOF,2017/07/13 04:25:58+00,Onagbe Market,,,,,,,,,BNSPKG09,110781,7.06,7.78
9.52769,7.64696,110782,Gbagir,,,racheal.olarewaju,,,OSGOF,2017/07/13 04:25:58+00,Gbagir Market,,,,,,,,,BNSUKM04,110782,7.65,9.53
9.0596,6.85365,110783,Umagh I,,,racheal.olarewaju,,,OSGOF,2017/07/13 04:25:58+00,Umagh I Market,,,,,,,,,BNSVDY04,110783,6.85,9.06
9.08796,6.6559,110784,Omba Yagh,,,racheal.olarewaju,,,OSGOF,2017/07/13 04:25:58+00,Omba Yagh Market,,,,,,,,,BNSVDY11,110784,6.66,9.09
4.79207,7.45388,110785,Akanni,,,racheal.olarewaju,,,eHA_Polio,2013/02/06 04:47:52+00,Akanni Market,,,,,,,,,OSSAME03,110785,7.45,4.79
4.61942,7.63521,110786,Iloba,,,racheal.olarewaju,,,eHA_Polio,2013/02/06 04:47:52+00,Iloba Market,,,,,,,,,OSSAMW10,110786,7.64,4.62
4.64353,7.69296,110787,Ibode,,,racheal.olarewaju,,,eHA_Polio,2013/02/06 04:47:52+00,Ibode Market,,,,,,,,,OSSAMW08,110787,7.69,4.64
4.64791,7.52843,110788,Itagunmodi,,,racheal.olarewaju,,,eHA_Polio,2013/02/06 04:47:52+00,Itagunmodi Market,,,,,,,,,OSSAMW06,110788,7.53,4.65
4.66572,7.67097,110789,Ilaa Ijesa,,,racheal.olarewaju,,,eHA_Polio,2013/02/06 04:47:52+00,Ilaa Ijesa Market,,,,,,,,,OSSIEW07,110789,7.67,4.67
4.42512,7.81432,110790,Owode Ojo,,,racheal.olarewaju,,,eHA_Polio,2013/02/06 04:47:52+00,Owode Market Ojo,,,,,,,,,OSSEDE03,110790,7.81,4.43
4.2888,7.86524,110791,Araromi Araromi Iwata,,,racheal.olarewaju,,,eHA_Polio,2013/02/06 04:47:52+00,Araromi Market Araromi Iwata,,,,,,,,,OSSEGO05,110791,7.87,4.29
4.41787,7.25042,110792,Oyere,,,racheal.olarewaju,,,eHA_Polio,2013/02/06 04:47:52+00,Oyere Market,,,,,,,,,OSSINH09,110792,7.25,4.42
4.59712,7.14624,110793,Onigbodogi,,,racheal.olarewaju,,,eHA_Polio,2013/02/06 04:47:52+00,Onigbodogi Market,,,,,,,,,OSSISH06,110793,7.15,4.6
4.49074,7.18284,110794,Yinmi Oja,,,racheal.olarewaju,,,eHA_Polio,2013/02/06 04:47:52+00,Yinmi Oja Market,,,,,,,,,OSSISH09,110794,7.18,4.49
4.50593,7.31412,110795,Camp Ogunleye,,,racheal.olarewaju,,,eHA_Polio,2013/02/06 04:47:52+00,Camp Ogunleye Market,,,,,,,,,OSSISH05,110795,7.31,4.51
4.5452,7.0288,110796,Oba Okunade,,,racheal.olarewaju,,,eHA_Polio,2013/02/06 04:47:52+00,Oba Okunade Market,,,,,,,,,OSSISH06,110796,7.03,4.55
4.48776,7.1573,110797,Poyika Adewumi,,,racheal.olarewaju,,,eHA_Polio,2013/02/06 04:47:52+00,Poyika Adewumi Market,,,,,,,,,OSSISH09,110797,7.16,4.49
4.76844,7.76068,110798,Ilahun Main,,,racheal.olarewaju,,,eHA_Polio,2013/02/06 04:47:52+00,Ilahun Main Market,,,,,,,,,OSSOBN05,110798,7.76,4.77
4.67607,7.73103,110799,Olorunda CDA,,,racheal.olarewaju,,,eHA_Polio,2013/02/06 04:47:52+00,Olorunda CDA Market,,,,,,,,,OSSOBN07,110799,7.73,4.68
4.89191,7.37934,110800,Apoti,,,racheal.olarewaju,,,eHA_Polio,2013/02/06 04:47:52+00,Apoti Market,,,,,,,,,OSSOIE01,110800,7.38,4.89
4.87985,7.40365,110801,Onikoko,,,racheal.olarewaju,,,eHA_Polio,2013/02/06 04:47:52+00,Onikoko Market,,,,,,,,,OSSOIE01,110801,7.4,4.88
4.86345,7.60118,110802,Omo Ijema,,,racheal.olarewaju,,,eHA_Polio,2013/02/06 04:47:52+00,Omo Ijema Market,,,,,,,,,OSSOIE04,110802,7.6,4.86
3.18288,8.46474,110803,Agbuugudu,,,racheal.olarewaju,,,eHA_Polio,2013/02/06 04:47:52+00,Agbuugudu Market,,,,,,,,,OYSSWT09,110803,8.46,3.18
3.30156,7.59908,110804,Alabi,,,racheal.olarewaju,,,eHA_Polio,2013/02/06 04:47:52+00,Alabi Market,,,,,,,,,OYSIBAN07,110804,7.6,3.3
3.21009,8.20382,110805,Babaode,,,racheal.olarewaju,,,eHA_Polio,2013/02/06 04:47:52+00,Babaode Market,,,,,,,,,OYSIWU01,110805,8.2,3.21
3.04117,8.02137,110806,Itasa Central,,,racheal.olarewaju,,,eHA_Polio,2013/02/06 04:47:52+00,Itasa Central Market,,,,,,,,,OYSIJA07,110806,8.02,3.04
3.1454,7.88008,110807,Aba Ofeegun,,,racheal.olarewaju,,,eHA_Polio,2013/02/06 04:47:52+00,Aba Ofeegun Market,,,,,,,,,OYSIJA09,110807,7.88,3.15
3.83865,7.22773,110808,Abanla,,,racheal.olarewaju,,,eHA_Polio,2013/02/06 04:47:52+00,Abanla Market,,,,,,,,,OYSOYE01,110808,7.23,3.84
3.79955,7.2174,110809,Sanusi Village,,,racheal.olarewaju,,,eHA_Polio,2013/02/06 04:47:52+00,Sanusi Village Market,,,,,,,,,OYSOYE03,110809,7.22,3.8
4.02669,7.22794,110810,Gbedon Village,,,racheal.olarewaju,,,eHA_Polio,2013/02/06 04:47:52+00,Gbedon Village Market,,,,,,,,,OYSONA06,110810,7.23,4.03
3.78757,8.95071,110811,Sooru,,,racheal.olarewaju,,,eHA_Polio,2013/02/06 04:47:52+00,Sooru Market,,,,,,,,,OYSOLE03,110811,8.95,3.79
3.7781,7.89954,110812,Fasola,,,racheal.olarewaju,,,eHA_Polio,2013/02/06 04:47:52+00,Fasola Market,,,,,,,,,OYSOWT03,110812,7.9,3.78
3.73724,7.74701,110813,Ojutaye,,,racheal.olarewaju,,,eHA_Polio,2013/02/06 04:47:52+00,Ojutaye Market,,,,,,,,,OYSAFO09,110813,7.75,3.74
3.7095,8.71016,110814,Araromi Mami,,,racheal.olarewaju,,,eHA_Polio,2013/02/06 04:47:52+00,Araromi Mami Market,,,,,,,,,OYSSET11,110814,8.71,3.71
3.26918,8.75204,110815,Ekokan,,,racheal.olarewaju,,,eHA_Polio,2013/02/06 04:47:52+00,Ekokan Market,,,,,,,,,OYSSWT05,110815,8.75,3.27
3.22047,8.65107,110816,Idera Oja,,,racheal.olarewaju,,,eHA_Polio,2013/02/06 04:47:52+00,Idera Oja Market,,,,,,,,,OYSSWT09,110816,8.65,3.22
3.20118,8.71563,110817,Aba Rogba,,,racheal.olarewaju,,,eHA_Polio,2013/02/06 04:47:52+00,Aba Rogba Market,,,,,,,,,OYSSWT05,110817,8.72,3.2
9.04866,9.57797,110818,Dorowa Tsho,,,racheal.olarewaju,,,OSGOF,2017/08/25 02:04:38+00,Dorowa Tsho Market,,,,,,,,,PLSBLD17,110818,9.58,9.05
9.06505,9.66255,110819,Barkin Kogi,,,racheal.olarewaju,,,OSGOF,2017/08/25 02:04:38+00,Barkin Kogi Market,,,,,,,,,PLSBLD08,110819,9.66,9.07
9.14627,9.75401,110820,Maijuju Square,,,racheal.olarewaju,,,OSGOF,2017/08/25 02:04:38+00,Maijuju Market Square,,,,,,,,,PLSANW13,110820,9.75,9.15
9.91506,9.22663,110821,Kafel,,,racheal.olarewaju,,,OSGOF,2017/08/25 02:04:38+00,Kafel Market,,,,,,,,,PLSDNG20,110821,9.23,9.92
9.97538,9.28704,110822,Tuttung,,,racheal.olarewaju,,,OSGOF,2017/08/25 02:04:38+00,Tuttung Market,,,,,,,,,PLSDNG15,110822,9.29,9.98
10.02634,9.3525,110823,Bagyir,,,racheal.olarewaju,,,OSGOF,2017/08/25 02:04:38+00,Bagyir Market,,,,,,,,,PLSDNG05,110823,9.35,10.03
10.04027,9.37391,110824,Kyamsangi,,,racheal.olarewaju,,,OSGOF,2017/08/25 02:04:38+00,Kyamsangi Market,,,,,,,,,PLSDNG05,110824,9.37,10.04
10.28176,9.44709,110825,Ganjuwa,,,racheal.olarewaju,,,OSGOF,2017/08/25 02:04:38+00,Ganjuwa Market,,,,,,,,,PLSWAS20,110825,9.45,10.28
10.35659,9.47075,110826,Kyaram,,,racheal.olarewaju,,,OSGOF,2017/08/25 02:04:38+00,Kyaram Market,,,,,,,,,PLSDNG18,110826,9.47,10.36
10.0981,9.47981,110827,Furyam,,,racheal.olarewaju,,,OSGOF,2017/08/25 02:04:38+00,Furyam Market,,,,,,,,,PLSDNG12,110827,9.48,10.1
10.11243,9.50343,110828,Takwar,,,racheal.olarewaju,,,OSGOF,2017/08/25 02:04:38+00,Takwar Market,,,,,,,,,PLSDNG14,110828,9.5,10.11
9.96399,9.60949,110829,Police,,,racheal.olarewaju,,,OSGOF,2017/08/25 02:04:38+00,Police Market,,,,,,,,,PLSDNG04,110829,9.61,9.96
10.17413,9.67312,110830,Zalli,,,racheal.olarewaju,,,OSGOF,2017/08/25 02:04:38+00,Zalli Market,,,,,,,,,PLSDNG19,110830,9.67,10.17
9.50409,9.20137,110831,Tomtur,,,racheal.olarewaju,,,OSGOF,2017/08/25 02:04:38+00,Tomtur Market,,,,,,,,,PLSKWK11,110831,9.2,9.5
9.55555,9.28263,110832,Langshi,,,racheal.olarewaju,,,OSGOF,2017/08/25 02:04:38+00,Langshi Market,,,,,,,,,PLSKWK13,110832,9.28,9.56
9.57149,9.39557,110833,Jemut Kabwir,,,racheal.olarewaju,,,OSGOF,2017/08/25 02:04:38+00,Jemut Kabwir Market,,,,,,,,,PLSKWK10,110833,9.4,9.57
9.8305,9.2249,110834,Lala Kodong,,,racheal.olarewaju,,,OSGOF,2017/08/25 02:04:38+00,Lala Kodong Market,,,,,,,,,PLSLGT15,110834,9.22,9.83
9.21559,9.40773,110835,Payam Square,,,racheal.olarewaju,,,OSGOF,2017/08/25 02:04:38+00,Payam Market Square,,,,,,,,,PLSMGU18,110835,9.41,9.22
9.61581,9.02175,110836,Tunkus,,,racheal.olarewaju,,,OSGOF,2017/08/25 02:04:38+00,Tunkus Market,,,,,,,,,PLSTNK16,110836,9.02,9.62
9.05585,8.89234,110837,Dungras Square,,,racheal.olarewaju,,,OSGOF,2017/08/25 02:04:38+00,Dungras Market Square,,,,,,,,,PLSQAP02,110837,8.89,9.06
10.26288,8.95589,110838,Gimbi Square,,,racheal.olarewaju,,,OSGOF,2017/08/25 02:04:38+00,Gimbi Market Square,,,,,,,,,PLSWAS05,110838,8.96,10.26
9.99662,9.02218,110839,Chuwi Square,,,racheal.olarewaju,,,OSGOF,2017/08/25 02:04:38+00,Chuwi Market Square,,,,,,,,,PLSWAS14,110839,9.02,10
10.26762,9.19037,110840,Safiyo Square,,,racheal.olarewaju,,,OSGOF,2017/08/25 02:04:38+00,Safiyo Market Square,,,,,,,,,PLSWAS03,110840,9.19,10.27
10.0034,9.22058,110841,Lamba Square,,,racheal.olarewaju,,,OSGOF,2017/08/25 02:04:38+00,Lamba Market Square,,,,,,,,,PLSWAS12,110841,9.22,10
10.24987,9.28242,110842,Sabon Layi Square,,,racheal.olarewaju,,,OSGOF,2017/08/25 02:04:38+00,Sabon Layi Market Square,,,,,,,,,PLSWAS03,110842,9.28,10.25
10.16374,9.31252,110843,Bashar Square,,,racheal.olarewaju,,,OSGOF,2017/08/25 02:04:38+00,Bashar Market Square,,,,,,,,,PLSWAS01,110843,9.31,10.16
4.143183,13.16231,110844,Kasuwan Bachaka,,,racheal.olarewaju,,,eHA_Polio,2013/02/06 04:47:52+00,Kasuwan Bachaka,No,No,No,No,No,Yes,Yes,1,50201,110844,13.16,4.14
4.200214,12.45013,110845,Tsohuwar Kasuwa,,,racheal.olarewaju,,,eHA_Polio,2013/02/06 04:47:52+00,Tsohuwar Kasuwa,Yes,Yes,Yes,Yes,Yes,Yes,Yes,7,50612,110845,12.45,4.2
4.208195,12.44122,110846,Sabuwar Kasuwa,,,racheal.olarewaju,,,eHA_Polio,2013/02/06 04:47:52+00,Sabuwar Kasuwa,Yes,Yes,Yes,Yes,Yes,Yes,Yes,7,50612,110846,12.44,4.21
4.221332,11.40618,110847,Kasuwa Daji,,,racheal.olarewaju,,,eHA_Polio,2013/02/06 04:47:52+00,Kasuwa Daji,Yes,No,No,No,No,No,No,1,50501,110847,11.41,4.22
4.229844,11.40313,110848,Kasuwa Gari,,,racheal.olarewaju,,,eHA_Polio,2013/02/06 04:47:52+00,Kasuwa Gari,Yes,Yes,Yes,Yes,Yes,Yes,Yes,7,50501,110848,11.4,4.23
4.253323,12.31981,110849,Kasuwar Basuara,,,racheal.olarewaju,,,eHA_Polio,2013/02/06 04:47:52+00,Kasuwar Basuara,No,No,Yes,No,No,No,No,1,51103,110849,12.32,4.25
4.263832,12.78861,110850,Kasuwan Yaldu,,,racheal.olarewaju,,,eHA_Polio,2013/02/06 04:47:52+00,Kasuwan Yaldu,No,No,No,Yes,No,No,No,1,50211,110850,12.79,4.26
4.46599,12.18957,110851,Kasuwar Alelu,,,racheal.olarewaju,,,eHA_Polio,2013/02/06 04:47:52+00,Kasuwar Alelu,No,No,No,Yes,No,No,No,1,51101,110851,12.19,4.47
4.512875,12.13602,110852,Kasuwar Gari,,,racheal.olarewaju,,,eHA_Polio,2013/02/06 04:47:52+00,Kasuwar Gari,Yes,Yes,Yes,Yes,Yes,Yes,Yes,7,51105,110852,12.14,4.51
4.516282,12.13627,110853,Kasuwar Daji,,,racheal.olarewaju,,,eHA_Polio,2013/02/06 04:47:52+00,Kasuwar Daji,Yes,No,No,No,No,No,No,1,51105,110853,12.14,4.52
4.572582,12.07047,110854,Kasuwar Gari Agwada,,,racheal.olarewaju,,,eHA_Polio,2013/02/06 04:47:52+00,Kasuwar Gari Agwada,No,No,No,No,Yes,No,No,1,51105,110854,12.07,4.57
