"","X.1","X","Branches","Address","ID","lat","long"
"1",1,1,"ABACHA BARRACKS","Mogadishu Cantonment (Formerly Sani Abacha Barracks) Asokoro. FCT",5571,9.0484146,7.5379733
"2",2,2,"ABUJA, LAFIA CLOSE","1, Lafia Close, Area 8. Garki. Abuja",5112,9.0334571,7.4874973
"3",3,3,"ABUJA MAIN","39 FASKARI CRESENT, AREA 3 GARKI, ABUJA",6877,9.028761,7.4759687
"4",4,4,"AHOADA AREA11","PLOT 876, OBAFEMI AWOLOWO CLOSE",5735,6.4701659,3.171283
"5",5,5,"AMINU KANO","PLOT 106 AMINU KANO CRESCENT, WUSE 2 ABUJA",5572,9.0724334,7.4695728
"6",6,6,"AP PLAZA, ABUJA","AP Plaza Adetokunbo Ademola St, Wuse, Abuja",2756,9.0725496,7.4767106
"7",7,7,"ASOKORO","Plot 21C, Julius Nyerere Street, off Yakubu Gowon Str, Asokoro, Abuja",809,9.0469848,7.5224249
"8",8,8,"CBD Abuja","Gateway Plaza, Plot 208, Zakariyah Maimalari Road, off Herbert",9534,NA,NA
"9",9,9,"CEDDI PLAZA","PLOT 264 TAFAWA BALEWA WAY CBD- ABUJA",3130,9.0452857,7.4950113
"10",10,10,"COURT OF APPEAL","COURT OF APPEAL COMPLEX 3 ARM ZONE",2013,9.0733503,7.5064504
"11",11,11,"FEDERAL MINISTRY OF WORKS","MABUSHI, UTAKO DISTRICT, ABUJA FCT",9379,9.0678511,7.4464402
"12",12,12,"GARKI II","PLOT 1347 AHMADU BELLO WAY, GARKI, ABUJA",8126,9.0289779,7.4912686
"13",13,13,"GWAGWALADA","Plot 63 University Of Abuja Teaching Hospital road",5722,8.9806983,7.1804956
"14",14,14,"IMANI ESTATE","IMANI ESTATE MAITAMA",8780,9.0876436,7.491388
"15",15,15,"KOFORIDUA BO","28 Koforidua Street Wuse Zone 2",2093,9.0575129,7.4595261
"16",16,16,"LE-MERIDIEN","PLOT 903 , TAFAWA BALEWA STR. AREA 11 GARKI, ABUJA",5263,9.0466721,7.4942476
"17",17,17,"MAITAMA 2","Plot 701, Usuma Street, off Gana Street, Maitama, Abuja",2629,9.0774306,7.4980748
"18",18,18,"MINISTRY OF JUSTICE","Fed min of justice HQ, Shehu Shagari way maitama Abuja",1277,9.0881961,7.4933824
"19",19,19,"NASS - HOUSE OF REPS","National Assembly Complex, Three-Arms Zone Maitama District. Abuja.",8548,9.0682021,7.5110871
"20",20,21,"NASS – SENATE","National Assembly Complex, Three-Arms Zone Maitama District. Abuja",6377,9.0682021,7.5110871
"21",21,22,"NATIONAL HOSPITAL, ABUJA","Plot 132, Central Business District FCT. Abuja",6220,9.0585927,7.4894131
"22",22,23,"NNPC TOWERS","NNPC Towers Abuja",1925,9.0546757,7.4849524
"23",23,24,"OWENA HOUSE, ABUJA","POWA PLAZA",663,9.0262074,7.4976046
"24",24,25,"Prestige Abuja Bank","2 Usuma Street, off Gana Street Maiitama Abuja",5063,9.0807216,7.5010051
"25",25,26,"SILVERBIRD","SILVERBIRD GALLERIA CBD,ABUJA",3402,9.0672921,7.4855724
"26",26,27,"TRANSCORP HILTON","TRANSCORP HILTON HOTEL. NO. 1 AGUIYI IRONSI STREET,MAITAMA",7255,9.0835617,7.4885408
"27",27,28,"WAEC","WAEC BUILDING 10 ZAMBEZI CRESCENT MAITAMA",7635,9.0784158,7.4910326
"28",28,29,"WUSE 2","Plot 52, Ademola Adetokunbo Crescent, Wuse 2, Abuja",9553,9.0718889,7.484941
"29",29,30,"WUSE 4","2097 Herbert Macaulay Wy Wuse4",2524,9.0632382,7.4730931
"30",30,31,"ABA FACTORY ROAD","5, Factory Road, Aba. Abia State",1965,5.1204026,7.3679957
"31",31,32,"ABA -OKIGWE RD","9 Okigwe Road Aba",8191,5.1143147,7.3645068
"32",32,33,"ABA OWERRI RD","146/148 Aba-Owerri Road, Aba, Abia State",3573,5.1336621,7.3554355
"33",33,34,"Aba P/h Road","10, Port Harcourt Road, Aba. Abia State",4275,5.1007716,7.3618662
"34",34,35,"ABA ROAD UMUAHIA","68 Aba Road Umuahia",8392,5.4971769,7.4850322
"35",35,36,"BENDE","Bende-Umuahia Road, Bende. Abia State",4831,5.3607713,7.6068049
"36",36,37,"EZIUKWU B/O","3A CEMETERY ROAD, EZIUKWU MARKET, ABA, ABIA STATE",3287,5.103609,7.3553607
"37",37,38,"FACTORY RD, ABA-ABA1","1A, FACTORY ROAD, ABA",9010,5.1195089,7.3691302
"38",38,39,"FAULKS ROAD, ABA","21, Faulks Road. Aba, Abia State",9251,5.1227125,7.3545043
"39",39,40,"UMUAHIA","1 FACTORY ROAD / AKANU IBIAM ROAD UMUAHIA, ABIA STATE",4578,5.5189446,7.4889385
"40",40,41,"AHMADU BELLO WAY","56, Ahmadu Bello Way",8497,6.4313511,3.4088876
"41",41,42,"GALADIMA AMINU2 B/O","36, GALADIMA AMINU WAY, JIMETA, YOLA",8747,9.2664126,12.4455628
"42",42,43,"GLADIMA AMINU1 B/O","42, GLADIMA AMINU WAY, JIMETA, YOLA",578,9.2451085,12.4555975
"43",43,44,"AKA RD","7-13, Aka Road, PMB 1202, Uyo, Akwa Ibom State.",4821,5.0331144,7.926978
"44",44,45,"EBUKHU","Ebukhu, MBO L.G.A. Oron. Akwa-Ibom State.",6647,4.807369,8.2377049
"45",45,46,"EKET","12B, Grace Bill Rd, PMB 1163. Eket. Akwa Ibom State.",6336,4.6412665,7.9289518
"46",46,47,"IKOT ABASI","Ibekwe Road, PMB. 1053, Ikot Abasi. LGA. Akwa Ibom State",867,4.5739124,7.5788975
"47",47,48,"IKOT EKPENE","Esuene Drive, Ikot-Ekpene",5794,5.1744472,7.7145152
"48",48,49,"NWANNIBA RD, Uyo 3","34, Nwaniba Road, Uyo. Akwa Ibom State",804,5.0302872,7.9362395
"49",49,50,"UBA PLC ABAK ROAD,UYO","PLOT 15 BLK 1,ABAK ROAD ,UYO",6225,5.0351563,7.9276759
"50",50,51,"UDO UDOMA AVENUE","Udo Udoma Avenue, Uyo",5302,5.0024231,7.9327385
"51",51,52,"47, ZIK AVENUE, AWKA, ANAMBRA","47, Zik Avenue, Awka, Anambra",6233,6.2193783,7.0862826
"52",52,53,"AGULU","EKWULOBIA ROAD AGULU, Anambra State",5247,6.1049371,7.0393773
"53",53,54,"AWKA 1 - 2 ZIK AVENUE","2 Zik Avenue Awka, Anambra State",6650,6.2196211,7.0860038
"54",54,55,"AWKA 2 - 47 ZIK AVE","47 ZIK AVENUE, AWKA",4895,6.2193783,7.0862826
"55",55,56,"AWKA 2 – SECRETARIAT","STATE SECRETARIAT COMPLEX, AWKA, ANAMBRA STATE",7353,6.2328898,7.083369
"56",56,57,"ELECTRONICS MARKET ONITSHA","Electronics Mrkt, Onitsha",8930,6.1277699,6.7757203
"57",57,58,"NKPOR 1 - OKOSISI LANE","OKOSISI LANE, NEW AUTO SPARE PARTS MKT, NKPOR, ANAMBRA",8362,6.1462401,6.8297403
"58",58,59,"NKPOR 2 - AJULUCHUKWU ST.","14, AJULUCHUKWU ST, NEW PARTS MKT, NKPOR, ANAMBRA",6163,6.1531087,6.833425
"59",59,60,"NNEWI 2 - EDO EZEMEWI RD.","22 Edo-Ezemewi Road Nnewi2, Anambra",1401,6.0105192,6.9103455
"60",60,61,"NNEWI 2 EDO-EZEMEWI RD","22 EDO-EZEMEWI RD NNEWI, ANAMBRA",2564,6.0105192,6.9103455
"61",61,62,"Nnewi 3","Onitsha Bridge Head",142,6.131832,6.7714831
"62",62,63,"NNEWI MOTORCYCLE SPARE PART MARKET","MOTORCYCLE SPARE PART MARKET, NNEWI",5487,6.0105192,6.9103455
"63",63,64,"NNEWI, PARTS MKT","Ukpor, Nnewi South LGA Anambra",719,5.909643,6.93299
"64",64,65,"Ochanja - Iweka Road","96B, IWEKA ROAD, ONITSHA, ANAMBRA STATE",3085,6.1404925,6.7842773
"65",65,66,"ONITSHA 1 - NEW MARKET ROAD","37, NEW MKT RD, ONITSHA, ANAMBRA STATE",2759,6.1516469,6.7794365
"66",66,67,"ONITSHA 3 - 8B NEW MARKET ROAD","8B, MARKET RD, ONITSHA, ANAMBRA STATE",4750,6.1329419,6.7923994
"67",67,68,"ONITSHA BRIDGEHEAD 1","16 Port Harcourt Road, Bridgehead, Onitsha",953,6.1327971,6.7760814
"68",68,69,"ONITSHA BRIDGEHEAD 2","30A Port Harcourt Road Bridgehead Onitsha",1333,6.1331645,6.7707026
"69",69,70,"ONITSHA BRIDGEHEAD 3","56 Port Harcourt Road Bridgehead Onitsha",2229,6.1330947,6.773291
"70",70,71,"Onitsha Main (New Market Road 1)","40, NEW MKT RD, ONITSHA, ANAMBRA STATE",4564,6.1511055,6.7789089
"71",71,72,"ONITSHA OGIDI EXP WAY","5, Enugu / Onitsha Express Way. Ogidi. Anambra State",8819,6.1356259,6.795964
"72",72,73,"Onitsha, Bida Rd","3A, Bida Road Main Market Onitsha. Anambra state",5417,6.1406881,6.7801738
"73",73,74,"Park Road, Nnewi 1","6, ORAIFITE / OGBUFOR RD, NNEWI,ANAMBRA STATE",9204,6.0105192,6.9103455
"74",74,75,"RELIEF MKT. ONITSHA","Ogbodo Ukwu Road, Relief Market, off Onitsha Owerri Exp. Way",2472,6.1329419,6.7923994
"75",75,76,"Ugwuagba, Obosi","Ugwuagba Obosi",6971,6.1126891,6.7983199
"76",76,77,"UNIZIK","Nnamdi Azikiwe University, Akwa, Anambra State",5174,6.2458802,7.119894
"77",77,79,"BAUCHI STATE","",2636,NA,NA
"78",78,80,"Branch","Address",8222,NA,NA
"79",79,81,"37, ABDULKADIR AHMED WAY","37, Abdulkadir Ahmed Way",2651,NA,NA
"80",80,82,"ABDULKADIR AHMED WAY","37 ABDULKADIR AHMED WAY",1242,NA,NA
"81",81,83,"BANK ROAD B/O","10, BANK ROAD COMMERCIAL AREA, BAUCHI",4214,10.3024403,9.820454
"82",82,84,"NINGI B/O","ALG BAUCHI-KANO ROAD, NINGI, BAUCHI",8957,10.3121757,9.8174704
"83",83,85,"Abraka-Ere Hse,Yenezue-Gene Yen","Abraka-Ere Hse,Yenezue-Gene Yen",6856,5.7894321,6.1023468
"84",84,86,"Mbiama Yenagoa","144 Mbiama Yenagoa, Bayelsa",2475,4.9367934,6.2832359
"85",85,87,"ONUPA RD, YENAGOA","186, Mbiama Road, Onopa, Yenagoa, Bayelsa State",4209,4.9343077,6.285579
"86",86,88,"Swali Road, Yenagoa","A59 Central Business District, Swali, Yenagoa",6062,4.9514468,6.3491975
"87",87,89,"Commercial Road, Opp Texaco BO","1, Commercial Road, Opp Texaco, Makurdi",5748,7.7321516,8.539144
"88",88,90,"Igumale Ado LGA BO","Igumale Ado LGA",5384,6.8041671,7.9729094
"89",89,91,"JS Tarka BO","14, JS Tarka Road Road, Gboko",8282,7.3368424,9.0018424
"90",90,92,"NAF Base BO","NAF Base, Makurdi",3747,7.7009726,8.6188161
"91",91,93,"North Bridge BO","Market Road Junction, North Bridge",3903,NA,NA
"92",92,94,"Ogiri Oko BO","Ogiri Oko Road, Opp CBN, Makurdi",6495,7.7330229,8.5277129
"93",93,95,"Otukpo Rd, Makurdi","28, Otukpo Road, Makurdi",4598,7.1970935,8.1482281
"94",94,96,"UBA Katsina Ala Road, Zaki Biam","UBA Katsina Ala Rd, Zaki Biam",8353,7.5005691,9.6063006
"95",95,97,"UBA Ohuhu Owo Oju LG","UBA Plc, Ohuhu Owo Oju LG",6918,6.7953689,8.5040345
"96",96,98,"BAGA ROAD B/O","8,BAGA RD, MAIDUGURI, BORNO",2731,12.1073056,12.8466225
"97",97,99,"DAMASAK B/O","Baga Road Maiduguri",1121,11.9028183,13.0789347
"98",98,100,"GOMBI ROAD B/O","GOMBI ROAD, PMB 1501, BIU, BORNO",7577,10.6094565,12.197886
"99",99,101,"KASHIM IBRAHIM 1 B/O","2, SIR KASHIM IBRAHIM RD, MAIDUGURI",7026,11.8343882,13.1066363
"100",100,102,"KASHIM IBRAHIM 2 B/O","24, SIR KASHIM IBRAHIM,MAIDUGURI",7356,11.8310981,13.1509672
"101",101,103,"MONDAY MARKET B/O","MONDAY MARKET, PMB 1303, MAIDUGURI",3003,11.8362105,13.15349
"102",102,104,"18, OKIM OSABOR STREET, IKOM, CROSS RIVER","18 Okim Osabor Street Ikom Cross River",4624,5.9616504,8.7205877
"103",103,105,"CALABAR RD 2","14, Calabar Road, Calabar. Cross River State",1349,4.9625239,8.3240465
"104",104,106,"IKOM","18 OKIM OSABOR STREET, IKOM, CROSS RIVER",172,5.9616504,8.7205877
"105",105,107,"UBA 1 CALABAR","15 CALABAR RD, CALABAR",477,4.9618416,8.3227464
"106",106,108,"UBA CALABAR 3","12 CALABAR ROAD, CALABAR",3997,4.9612856,8.3229924
"107",107,109,"97, ISOKO ROAD, UGHELLI, DELTA STATE","97, Isoko Road Ughelli, Delta State",2423,5.4879458,6.0072615
"108",108,110,"ABBI","UKANABOR UKU STREET ABBI NDOKWA WEST LGA",6174,5.6782211,6.2137058
"109",109,111,"ABRAKA","OLD AGBOR ROAD, EKREJETA, ABRAKA",1284,5.7904642,6.1032955
"110",110,112,"AGBOR","59, OLD LAGOS-ASABA RD., BOJI BOJI OWA, AGBOR,DELTA STATE",3184,6.2545983,6.1908573
"111",111,113,"ASABA 2","261 NNEBISI ROAD ASABA, DELTA STATE",1267,6.2055772,6.7213444
"112",112,114,"ASABA 3","PLOT 171 NNEBISI RD, ASABA, DELTA STATE",3892,6.200939,6.7336984
"113",113,115,"ASABA 1","Plot 238 Nnebisi Road, Asaba, Delta State",9990,6.2076942,6.7154124
"114",114,116,"EFFURUN, SAPELE RD","72, Effurun / Sapele Road. Effurun, Warri. Delta State",6351,5.5279153,5.7734727
"115",115,117,"EFFURUN1","39,EFFURUN SAPELE ROAD, EFFURUN",1203,5.5279153,5.7734727
"116",116,118,"ISSELE – UKU","Old Asaba/Lagos Road, by Obi's Palace, Issele-uku, Delta state",3640,6.3655586,6.4014442
"117",117,119,"OGHARA","Ajagbodudu Road, Oghara. Delta state",8324,5.5907851,6.100109
"118",118,120,"OGORODE B/O","LIFE FLOUR MILL PREMISES OGORODE, DELTA STATE",7730,5.7040308,5.9339181
"119",119,121,"OKPE RD, SAPELE","55 Okpe Rd. Sapele. Delta State",7017,5.8872352,5.6856581
"120",120,122,"OLD AGBOR ROAD, EKREJETA ABRAKA","Old Agbor Road, Ekrejeta Abraka",7425,5.7904642,6.1032955
"121",121,123,"PTI EFFURUN","Petroleum Training Institute Complex - Effurun. Branch",1939,5.5623678,5.7800247
"122",122,124,"SAPELE B/O","4, COURT ROAD SAPELE, DELTA STATE",8301,5.8983806,5.6795924
"123",123,125,"UGHELLI","97 ISOKO ROAD",2744,5.4879458,6.0072615
"124",124,126,"WARRI 1","6 OKUMAGBA AVENUE WARRI DELTA STATE",3685,5.5307313,5.7405889
"125",125,127,"WARRI 3","65 WARRI/SAPELE ROAD, WARRI",3431,5.5143278,5.7479357
"126",126,128,"WARRI PPMC","PPMC AREA COMPLEX, WARRI",2760,5.5543995,5.7932008
"127",127,129,"3, OGOJA ROAD, ABAKALIKI","3 Ogoja Road, Abakaliki",5724,6.3215619,8.1096431
"128",128,130,"OGOJA ROAD ABAKALIKI B/O","4B OGOJA ROAD, ABAKALIKI, EBONYI STATE",9959,6.3211453,8.1094309
"129",129,131,"ONUEKE","42, Abakaliki / Afikpor Road, by Ezza South LGA Hqtrs. Ebonyi State",3654,6.3230608,8.1120116
"130",130,132,"ZIK AVENUE BRANCH , ABAKALIKI","3 ZIK AVENUE , PMB 139, ABAKALIKI",6896,6.3236865,8.1132982
"131",131,133,"AIRPORT RD, BENIN","45, Airport Rd. Benin City. Edo State",7874,6.3251987,5.6153324
"132",132,134,"AKPAKPAVA 2","81 AKPAKPAVA RD BENIN CITY",6935,6.2648911,5.635336
"133",133,135,"AKPAKPAVA 3","56 AKPAKPAVA BO, BENIN-CITY, EDO STATE",3859,6.3337438,5.6249518
"134",134,136,"AUCHI","62 JATTU ROAD, AUCHI, EDO STATE",6137,7.0882568,6.2888338
"135",135,137,"BENIN MAIN","4, AKPAKPAVA RD, BENIN",248,6.3335206,5.624756
"136",136,138,"EKEN EKPOMAWAN RD, BENIN","89C, Ekenwan Road. Benin City. Edo State",4359,6.3461579,5.5930535
"137",137,139,"EKPOMA","7 UKPENU ROAD, EKPOMA",4607,6.7418715,6.1372284
"138",138,140,"IKPOBA HILL","11, Benin-Agbor Road, Ikpoba Hill 1, Benin City, Edo State",6737,6.3471733,5.6744069
"139",139,141,"SAKPONBA RD","3 SAKPONBA RD, BENIN",412,6.3317273,5.6248823
"140",140,142,"SAPELE ROAD B/O","100, SAPELE ROAD, BENIN CITY.",1231,6.2648911,5.635336
"141",141,143,"TEXTILE MILL RD, BENIN","Address 100, Textile Mill Rd, Benin-City, Edo State.",8159,6.359536,5.6027203
"142",142,144,"UGBOWO 1","218, USELU - LAGOS RD, UGBOWO, Benin-City, Edo State",1609,6.384815,5.6097147
"143",143,145,"UGBOWO 2","302 USELU/LAGOS RD, Benin-City",2318,6.384815,5.6097147
"144",144,146,"UPPER MISSION ROAD","134 UPPER MISSION ROAD BENIN CITY",1836,6.351124,5.6325659
"145",145,147,"UROMI","7, Mission Road, Uromi, Edo State",1391,6.712273,6.3284298
"146",146,148,"ADO EKITI 1","UBA, New Secretariat Road, Ado-Ekiti. Ekiti State.",6775,7.6348013,5.2010854
"147",147,149,"ADO EKITI 2","72 AJILOSUN STREET, ADO EKITI",2802,7.6028966,5.2211408
"148",148,150,"AGBADO-EKITI","58, AIYEGUNLE STREET AGBADO-EKITI",9484,7.8462624,5.1168249
"149",149,151,"OYE-EKITI, OTUN JUNCTION, OYE EKITI","Oye-Ekiti BO/Otun Junction, Oye_Ekiti",7128,7.7979306,5.3285505
"150",150,152,"UNIVERSITY OF ADO-EKITI","University of Ado-Ekiti",8835,7.7140869,5.260115
"151",151,153,"USI EKITI","Oke-Odi Street, Usi-Ekiti, Ekiti State",368,7.894706,5.1744903
"152",152,154,"9TH MILE CORNER, ENUGU","9th Mile Corner, Op Ezeagu LG HQ Aguobuowa, Enugu",9789,6.3995938,7.2221421
"153",153,155,"AGBANI","143, Agbani Road, Enugu State.",5949,6.4156501,7.4951374
"154",154,156,"ENUGU 1","20, Okpara Avenue. Enugu",5740,6.4392395,7.4879016
"155",155,157,"ENUGU MAIN","10, Station Road, off Okpara Avenue, Enugu",1712,6.4482701,7.5138947
"156",156,158,"INDEPENDENT LAYOUT","Upper Presidential Road (WAEC Junction), Independence Layout",6064,6.4343839,7.5219672
"157",157,159,"KENYATTA","36, Kenyatta Street, Uwani, Enugu, Enugu State.",4938,6.4204951,7.4998316
"158",158,160,"NEW HAVEN","Plot 2, Ebeano Housing Estate New-Haven Junction, Enugu.",8425,6.4482701,7.5138947
"159",159,161,"OGBETE MAIN MARKET B/O","Ogbete Main Market Bo",7419,6.4348182,7.4847987
"160",160,162,"OKPARA AVE (ENUGU)","53,OKPARA AVE.ENUGU",9030,6.4406887,7.4889603
"161",161,163,"TRANS – EKULU","49, Nike Lake Resort Road, Oppo. NOWAS Filling Station. Trans – Ekulu",7068,6.4823676,7.5013158
"162",162,164,"UNEC","University of Nigeria, Enugu Campus.",492,6.4482701,7.5138947
"163",163,165,"UNN","University of Nigeria Nsukka, Enugu State",9190,6.866602,7.4115263
"164",164,166,"ASHAKA CEMENT B/O","BY ASHAKA CEMENT PLC GATE, GOMBE",1784,NA,NA
"165",165,167,"MAIN MARKET B/O","MAIN MARKET ROAD, KUMO",5467,NA,NA
"166",166,168,"NEW MARKET B/O","8, NEW MARKET ROAD, OFF BIU ROAD, GOMBE",4833,10.279142,11.1730615
"167",167,169,"ASSUMPTA-OWERRI","3 ASSUMPTA AVENUE OWERRI,IMO STATE",2451,5.4913126,7.0304346
"168",168,170,"DOUGLAS ROAD","34 DOUGLAS ROAD OWERRI IMO STATE",6638,5.4854088,7.0312432
"169",169,171,"EKE-AHIARA JUNCTION, AHIAZU MBAISE, IMO","Eke-Ahiara Junction, Ahiazu Mbaise, Imo",9678,5.5245914,7.266984
"170",170,172,"GOVT STATION LAYOUT, ORLU","Govt Station Layout Orlu",2009,5.8358102,7.0196035
"171",171,173,"MBARI","4 MBARI STREET, IKENEGBU, OWERRI IMO STATE",3805,5.4945871,7.0347195
"172",172,174,"NWAORIEUBI","Owerri-Orlu Road, PMB 1002, Mbaitoli L.G.A, Nwaorieubi. Imo State",3919,5.5862573,7.0169592
"173",173,175,"ORLU","44A GOVT STATION ROAD, ORLU",7787,5.8358102,7.0196035
"174",174,176,"UMUAKA, B/O","UMUAKA B/O, NJABA LGCA, OWERRI/ORLU ROAD, UMUAKA,OWERRI",1196,5.6461055,7.0210961
"175",175,177,"WETHERAL RD","60, Wetheral Road, Owerri, Imo State",8114,5.4911312,7.0356008
"176",176,178,"Dutse","SANI ABACHA WAY, KIYAWA ROAD",7567,11.6932149,9.5873878
"177",177,179,"HADEJIA B/O","KANO ROAD, HADEJIA, JIGAWA",6667,12.4506045,10.040407
"178",178,180,"AHMADU BELLO B/O","1A, AHMADU BELLO WAY, KADUNA",5868,10.5161956,7.4305987
"179",179,181,"ALI AKILU B/O","4, ALI AKILU ROAD, KADUNA.",9072,10.5432388,7.4337519
"180",180,182,"KACHIA ROAD B/O","KACHIA ROAD, KADUNA.",7893,10.4895506,7.4188235
"181",181,183,"KADUNA BYE PASS","Kaduna Bye Pass",4155,10.5015183,7.4408397
"182",182,184,"KADUNA ROAD 1 B/O","F1, KADUNA ROAD, ZARIA",8052,11.1112053,7.7203961
"183",183,185,"KADUNA ROAD 2 B/O","F11, KADUNA ROAD, ZARIA",1159,11.1112053,7.7203961
"184",184,186,"KAFANCHAN B/O","KAFANCHAN ROAD, KADUNA",3951,9.5848982,8.2924213
"185",185,187,"KM 16, KACHIA ROAD, NNPC DEPOT","Km 16 Kachia Road, NNPC Depot",3589,10.4889457,7.4184094
"186",186,188,"MOGADISHU LAYOUT B/O","MOGADISHU LAYOUT, KADUNA",444,10.5015183,7.4408397
"187",187,189,"OGBOMOSHO ROAD B/O","14, OGBOMOSHO ROAD, KADUNA",2937,10.5126097,7.4245947
"188",188,190,"SOKOTO ROADA.B.U SAMARU ZARIA","161/162 Sokoto Road Opp. A.B.U Samaru Zaria",2727,11.160666,7.6385368
"189",189,191,"YAKUBU GOWON B/O","3, YAKUBU GOWON ROAD, KADUNA",6203,10.5223928,7.4310131
"190",190,192,"ZONKWA","Zonkwa",6765,9.7866816,8.2842112
"191",191,193,"SHARADA B/O","SHARADA IND. ESTATE, PHASE 1",1802,20.593684,78.96288
"192",192,194,"TUDUN WADA","KI POLYTECHNIC ROAD TUDUN WADA",9777,11.2496719,8.4047163
"193",193,195,"UBA ADO BAYERO B/O","31, ADO BAYERO ROAD, KANO",7399,12.0084925,8.5353453
"194",194,196,"AIRPORT B/O","MALLAM AMINU KANO INTERNATIONAL AIRPORT",424,12.0456496,8.5220753
"195",195,197,"BUK BO","BAYERO UNIVERSITY B/OFFICE (BUK)",1286,11.9645407,8.4309113
"196",196,198,"CX HOTORO B/O","165 MAIDUGURI RD, HOTORO",2523,11.9633004,8.5890621
"197",197,199,"CX KANO B/O","15B, POST OFFICE ROAD, KANO",9418,11.9800664,8.4978135
"198",198,200,"KANO 1 B/O","14B, BELLO ROAD, KANO",7355,12.0062617,8.5355701
"199",199,201,"KANO 2 B/O","PLAZA ROAD, KANTIN KWARI",9087,NA,NA
"200",200,202,"KANO 3 B/O","3A, FRANCE ROAD, SABON GARI, KANO",6545,12.0140223,8.533202
"201",201,203,"KANO MAIN BO","4B, BANK ROAD, KANO",3269,12.0038453,8.537523
"202",202,204,"KANO WAJE","38, MURTALA MOHAMMED WAY",6978,12.0060274,8.5603617
"203",203,205,"NIGER STREET B/O","NIGER STREET BO",5488,54.1018542,-3.2465548
"204",204,206,"DUTSIN B/O","KANKIA BYE PASS, DUTSIN-MA",4011,12.4736465,7.6759692
"205",205,207,"FUNTUA B/O 1","146-148, ZARIA ROAD, FUNTUA",3535,11.5184818,7.3129299
"206",206,208,"KATSINA B/O 1","165, IBB WAY, KATSINA",5448,12.9882428,7.5994765
"207",207,209,"KATSINA B/O 2","23, IBB WAY, KATSINA",9884,12.9960744,7.5880272
"208",208,210,"ARGUNGU B/O","TASHAR NANA ROAD, ARGUNGU",7923,12.7494718,4.5366582
"209",209,211,"BIRNIN KEBBI","B1 SULTAN ABUBAKAR RD B-KEBBI",137,12.4645242,4.210275
"210",210,212,"AJAOKUTA B/O","GEREGU CAMP, AJAOKUTA STEEL COMPLEX",9808,7.5583504,6.6344177
"211",211,213,"ANKPA COLLEGE OF EDUCATION","Ankpa College of Education",4847,7.4053197,7.6222665
"212",212,214,"ANYIGBA BRANCH OFFICE","Anyigba Bo",2022,7.4933664,7.1736385
"213",213,215,"IDAH B/O","89C, AYEGBA OMAIDOKO WAY, IDAH",4810,7.1138119,6.7440467
"214",214,216,"KABBA B/O","LOKOJA ILORIN ROAD, KABBA",9441,7.8023204,6.733343
"215",215,217,"LOKOJA 1 B/O","7A IBB WAY, OKENE-KABA ROAD, LOKOJA",9298,7.7953428,6.737939
"216",216,218,"LOKOJA 3","ADANKOLO JUNCTION, LOKOJA",414,7.7883855,6.7328704
"217",217,219,"LOKOJA 4","145, MURTALA MOHAMMED ROAD,LOKOJA",322,7.8062307,6.7454304
"218",218,220,"OBAJANA","OBAJANA BUSINESS OFFICE",3330,7.9196707,6.4329537
"219",219,221,"ODE ERE","Lokoja-Kabba Road,Odo Ere. Kogi State.",2558,8.2513795,5.5486033
"220",220,222,"OKENE B/O","43, LOKOJA-OKENE ROAD, OKENE",9192,7.5426576,6.2413113
"221",221,223,"WHARF ROAD","4 WHARF ROAD, LOKOJA",7945,7.8023204,6.733343
"222",222,224,"3, WAHAB FOLAWIYO ROAD, ILORIN","3, Wahab Folawiyo Road, Ilorin",2981,8.4979575,4.5485854
"223",223,225,"ARMTI","Agricultural & Research Mgt. Training Inst. Lokoja Rd. Ilorin",6234,8.5373356,4.5443923
"224",224,226,"EGOSI","Egosi",3422,8.0868265,5.1236635
"225",225,227,"ESIE","Esie/Ijan Road, Esie Kwara State",5406,8.2121283,4.8974549
"226",226,228,"ILORIN 1","AKEWUSOLA PLAZA 137 MURITALA MOHD WAY, ILORIN",2653,8.5373356,4.5443923
"227",227,229,"ILORIN 2","123, MURITALA MOHAMMED WAY, ILORIN KWARA STATE",2686,8.4849259,4.5636468
"228",228,230,"OFFA","78, Ibrahim Taiwo Rd, Offa. Kwara State",6777,8.1414244,4.7178609
"229",229,231,"OJA OBA, ILORIN","opposite Central Mosque.Oja Oba. Ilorin. Kwara State",5705,8.4815513,4.5398533
"230",230,232,"TAIWO RD, ILORIN","169, Ibrahim Taiwo Rd, Ilorin, Kwara State",6522,8.4825986,4.5551141
"231",231,233,"UNILORIN","University of Ilorin",4032,8.4858957,4.674583
"232",232,234,"128 ISOLO ROAD, MUSHIN","128 Isolo Road, Mushin",4471,6.5310617,3.3426765
"233",233,235,"13, ALLEN AVENUE IKEJA, LAGOS","13 Allen Avenue, Ikeja, Lagos",5370,6.5972297,3.3541596
"234",234,236,"15, INDUSTRIAL AVENUE, ILUPEJU","15, Industrial Avenue, Ilupeju",1206,6.5509177,3.355743
"235",235,237,"20A, OSHODI-APAPA EXPRESSWAY","20A, Oshodi-Apapa Expressway",2822,NA,NA
"236",236,238,"216, BROAD STREET","216 Broad Street",2579,32.542163,-82.868458
"237",237,239,"241, NEW IPAJA ROAD, IYANA-IPAJA","241, New Ipaja Road, Iyana Ipaja",8629,6.6204572,3.3021976
"238",238,240,"29, ADETOKUNBO ADEMOLA","29, Adetokunbo Ademola",8212,6.4300338,3.42997
"239",239,241,"300, WHARF ROAD, APAPA, LAGOS","300, Wharf Road Apapa Lagos",8364,6.4472169,3.3711177
"240",240,242,"33B BISHOP ABOYADE COLE STREET, VICTORIA ISLAND","33B Bishop Aboyade Cole Street VI",8635,6.4349284,3.4374633
"241",241,243,"35, APAPA ROAD, EBUTTE METTA","35 Apapa Road, Ebute Metta",8883,6.4810629,3.3801608
"242",242,244,"366, HM STREE, AGNES SABO, YABA, LAGOS","366, H/M Street, Street Agnes Sabo, Yaba",3280,6.5070976,3.3754249
"243",243,245,"50, IJAIYE ROAD, OGBA, LAGOS","50, Ijaiye Road, Ogba, Lagos",3545,6.6320931,3.3406082
"244",244,246,"51, IKOSI ROAD, KETU","51, Ikosi Road Ketu",5303,6.5998325,3.3813278
"245",245,247,"53, LAGOS ROAD, IKORODU TOWN","53, Lagos Road Ikorodu Town",3773,6.6109538,3.5147555
"246",246,248,"8, OJO-IGBEDE ROAD","8, Ojo-Igbede Road",9892,6.4593241,3.1862748
"247",247,249,"ADENIYI JONES STREET, IKEJA","Adeniyi Jones Street Ikeja",3604,6.611088,3.345143
"248",248,250,"ADEOLA HOPEWELL","PLOT 1607 ADEOLA HOPEWELL STREET VICTORIA ISLAND",5879,6.4379834,3.4278041
"249",249,251,"ADEOLA ODEKU","PLOT 1115A ADEOLA ODEKU, V/I, LAGOS",8933,6.4300851,3.4187176
"250",250,253,"Adetokunbo Ademola 1","80A Adetokunbo Ademola Street, Victoria Island",3787,6.4259334,3.4286249
"251",251,254,"ADEYEMO ALAKIJA BO","19 ADEYEMO ALAKIJA STREET VICTORIA ISLAND",1560,6.4315971,3.4245798
"252",252,255,"AGEGE","25/27 CHARITY ROAD, OKO OBA, AGEGE",5298,6.6510132,3.3098872
"253",253,256,"AJOSE ADEOGUN","Ajose Adeogun, Lagos",1059,6.4309745,3.4357169
"254",254,257,"AKIN ADESOLA","11b AKIN ADESOLA STREET, VICTORIA ISLAND, LAGOS",6354,6.4274986,3.4242436
"255",255,258,"AKOWONJO","Plot 49, Akowonjo - Egbeda Road. Akowonjo, Lagos",6489,6.5994101,3.2936199
"256",256,259,"AKUTE B/O","Akute Business Office",7343,NA,NA
"257",257,260,"Alausa","Elephant Cement House, Central Business District, Alausa, Ikeja",7855,6.6174725,3.3562101
"258",258,261,"ALLEN 1 B/O","73, ALLEN AVENUE",9908,NA,NA
"259",259,262,"APAPA 1","46, WAREHOUSE ROAD, APAPA, LAGOS STATE",6022,6.4383767,3.3652178
"260",260,263,"ASPAMDA","Aspamda Plaza Tradefair 2",9647,6.4690891,3.2431957
"261",261,264,"BABS ANIMASHAUN","PLOT 148 BABS ANIMASHAUN STREET SURULERE, LAGOS",6520,6.4869468,3.348664
"262",262,265,"BADAGRY B/O","Badagry Business Office",1804,6.4182673,2.8901388
"263",263,266,"BERGER","Berger, Apapa - Oshodi Expressway, Lagos",1893,6.5243793,3.3792057
"264",264,267,"BODE THOMAS","20, Bode Thomas Street, Surulere. Lagos",840,6.4885654,3.3507187
"265",265,268,"BREADFRUIT","11/12 DAVIES STR LAGOS ISLAND, LAGOS",7922,6.454987,3.384998
"266",266,269,"BURMA ROAD, APAPA","Burma Road Apapa",5079,6.4386717,3.370562
"267",267,270,"CHEVRON","2, Chevron Drive, Lekki Peninsula. Lagos State LAGOS",1295,6.4576587,3.533352
"268",268,271,"CORPORATE HEAD OFFICE","24, Idowu Taylor Street,Victoria Island, Lagos",9359,6.4332031,3.4277574
"269",269,272,"DOCEMO","21/23, Docemo Street. Off Idumagbo, Lagos Island, Lagos",4809,6.4597886,3.3880108
"270",270,273,"DOLPHIN","Suite 69/70/104. Dolphin Plaza. Dolphin Estate. Ikoyi, Lagos",5117,6.4558449,3.4133039
"271",271,274,"DOPEMU - 101 ABEOKUTA EXP","101, Abeokuta Expressway Dopemu",5560,6.610392,3.306264
"272",272,275,"DOPEMU - 85 ABEOKUTA EXP","85 ABEOKUTA EXPRESSWAY, DOPEMU",5334,6.6100254,3.3062893
"273",273,276,"EBUTE METTA (OYINGBO)","86, MURITALA MUHAMMED WAY, EBUTE METTA, YABA",3790,6.4841043,3.3821576
"274",274,277,"EJIGBO 2","133, Ejigbo - Ikotun Road, Ejigbo. Lagos",7857,6.5388223,3.2904514
"275",275,278,"FALOMO","172, AWOLOWO ROAD, IKOYI, LAGOS",8231,6.443845,3.4223783
"276",276,279,"FESTAC 1","23 BY 72 ROAD JUNCTION, FESTAC TOWN, LAGOS",4532,6.4735414,3.2743291
"277",277,280,"GBAGADA PHASE 1GBAGADA EXP","285 Gbagada Expressway,Gbagada Phase 1, 2nd Pedro Bus",6217,6.5485258,3.3790348
"278",278,281,"GBAGADA-IFAKO","38, AJAYI AINA STREET, GBAGADA-IFAKO. LAGOS",5307,6.5579976,3.3910013
"279",279,282,"IDDO","1 TAYLOR ROAD,BY G. CAPPA, IDDO LAGOS",8021,6.5152962,3.3713081
"280",280,283,"Idowu Taylor","22B, IDOWU TAYLOR STREET V/ISLAND, LAGOS",8627,6.4335479,3.426941
"281",281,284,"IDUMAGBO","43, IDUMAGBO AVENUE OFF NNAMDI AZIKIWE STREET, LAGOS ISLAND",7431,6.4586998,3.3879236
"282",282,285,"IDUMOTA 1","169, NNAMDI AZIKWE STR. IDUMOTA, LAGOS",5267,6.4571606,3.3841554
"283",283,286,"IDUMOTA 2","144,NNAMDI AZIKIWE STREET IDUMOTA, LAGOS",8450,6.4571606,3.3841554
"284",284,287,"IDUMOTA 3","28 OBUN EKO STREET, IDUMOTA, LAGOS",2272,6.4616267,3.3882523
"285",285,288,"IDUMOTA 5","21, Obun Eko Street, Idumota, Lagos",6189,6.4613922,3.3877574
"286",286,289,"IGANMU","10, Abebe Village Road, Iganmu, P.O.Box 5947, Lagos",6382,6.4811181,3.3639463
"287",287,290,"IGBOSERE","12/14, Broad Street, Lagos",6448,6.4533819,3.3893118
"288",288,291,"IJORA","10 Ijora Causeway, Ijora. Lagos",1421,6.473953,3.356525
"289",289,292,"IJU","96, Iju Road, Fagba, Lagos",7136,6.6673285,3.3247225
"290",290,293,"IKEJA","Oluwalogbon House, Plot A. Obafemi Awolowo Way, Ikeja",795,6.6135924,3.3546807
"291",291,294,"IKEJA COMPUTER VILLAGE","9, Oremeji St, off Kodesoh Road, Ikeja. Lagos",2844,6.5957263,3.3414062
"292",292,295,"IKEJA GRA","39, Joel Ogunnaike Street, Ikeja GRA. Lagos",4434,6.5846473,3.351406
"293",293,296,"IKORODU RD – ANTHONY","300, Ikorodu Road, Anthony Bus Stop, Lagos.",4544,6.5578202,3.3672324
"294",294,297,"IKORODU RD 2 – PALMGROVE","220, Ikorodu Road, Palmgrove. Lagos",9941,6.5427447,3.3678444
"295",295,298,"IKOTA – VGC","Ikota Shopping Complex Vgc Lekki",1404,6.4621757,3.5552945
"296",296,299,"IKOTUN","74,ikotun-idimu road,Arida bus stop,Ikotun, Lagos State",7007,6.5505387,3.2680678
"297",297,300,"IPONRI OFFICE","IPONRI SHOPPING COMPLEX,IPONRI, LAGOS",2498,6.4869111,3.3643039
"298",298,301,"KARIKO TOWERS - WHARF ROAD","9 Wharf Road, Kariko Towers, Apapa",4339,6.4286519,3.3691241
"299",299,302,"KETU 2","549, Ikorodu Road, Ketu, Mile 12. Lagos",1347,6.6047604,3.3908061
"300",300,303,"LAGOS CENTRAL BRANCH","97/105 BROAD STREET LAGOS",2228,6.4474299,3.3977554
"301",301,304,"LAGOS EAST","12-14 Broad Street Lagos",8776,6.4533819,3.3893118
"302",302,305,"LASU CAMPUS","Lagos State University Campus. Ojo Lagos. State LAGOS",9195,6.4696511,3.2008727
"303",303,306,"LAWANSON","66 LAWANSON ROAD, ITIRE, SURULERE, LAGOS",4020,6.5118539,3.3436737
"304",304,307,"LEKKI PHASE 1","80A ADMIRALTY WAY, LEKKI PHASE 1, VICTORIA - ISLAND, LAGOS",4477,6.4476139,3.4814144
"305",305,308,"LEKKI (2) PROTEA","KM 18, Lekki-Epe Expressway, Near Protea Hotel, Lekki Peninsula",469,6.4395944,3.5257508
"306",306,309,"LUTH BO","ROAD 1, LAGOS UNIVERSITY TEACHING HOSPITAL,IDI-ARABA",8949,6.5176223,3.3537453
"307",307,310,"MARINA","55, MARINA, LAGOS",2211,6.4549632,3.3837943
"308",308,311,"MARINA WEST","53, MARINA, LAGOS",4462,6.454682,3.384261
"309",309,312,"Maryland","22, Mobolaji Bank Anthony Way, Ikeja, Lagos",6413,6.5867545,3.3579333
"310",310,313,"MATORI 1","Nucleus House, 21A Fatai Atere Way, Matori, Lagos",3657,6.5411827,3.3473767
"311",311,314,"MATORI 2","CORTEX SHOPPING COMPLEX, PLOT 126, LADIPO STREET, MATORI, MUSHIN",2403,6.5430448,3.3430141
"312",312,315,"MMIAR Arrival Hall","Murtala Mohammed Int'l Airport Arrival Terminal, Ikeja. Lagos",6289,6.5766592,3.3219612
"313",313,316,"","",2364,NA,NA
"314",314,317,"MOBIL HOUSE","MobilHouse, I Lekki Expressway, Victoria Island, Lagos",8232,6.4359434,3.4466647
"315",315,318,"NAF BASE, IKEJA","Sam Ethnan NAF Base, Ikeja. Lagos",3543,6.5826878,3.3404855
"316",316,319,"NECOM HOUSE","15 Marina, Necom House. Lagos",9650,6.446147,3.3975812
"317",317,320,"NEW OKO OBA, AGEGE","New Oko Oba Agege",3647,6.6678194,3.3069762
"318",318,321,"NNS QUORRA","HARBOUR ROAD OFF DOCKYARD RD. APAPA, LAGOS",1540,6.4530321,3.3695783
"319",319,322,"NYSC- IYANA IPAJA","241 NEW IPAJA ROAD, IYANA IPAJA",5292,6.6204572,3.3021976
"320",320,323,"OBA AKRAN","37, OBA AKRAN AVENUE IKEJA, LAGOS",4192,6.6024764,3.3379173
"321",321,324,"OBA AKRAN","24, Oba Akran Avenue, Ikeja, Lagos",2313,6.6067616,3.3364388
"322",322,325,"OBA AKRAN 3","138, Oba Akran Avenue, Ikeja. Lagos",8330,6.6075523,3.3364449
"323",323,326,"OBALENDE","1, ST. GREGORY RD, OBALENDE, LAGOS",223,6.4494046,3.4090355
"324",324,327,"ODUNADE BUS STOP, ORILE, LAGOS","29 Badagry Expressway, Odunade Orile, Lagos",6167,6.4686627,3.3306491
"325",325,328,"OGBA","21A ACME ROAD, OGBA-IKEJA, LAGOS",9688,6.6247241,3.3431996
"326",326,329,"OGUDU GRA","14B, Ogudu Road, GRA. Ogudu. Lagos",4175,6.5758934,3.3912
"327",327,330,"OGUNLANA DRIVE","154, OGUNLANA DRIVE, SURULERE, LAGOS",6637,6.5033569,3.3511131
"328",328,331,"OJODU","Plot 104, Ojodu-Isheri Road, Beside Mr. Biggs. Ojodu, Lagos State",1021,6.6390405,3.3621263
"329",329,332,"OJODU 2","26, New Isheri Road, Ojodu. Lagos State",7321,6.6390598,3.3620875
"330",330,333,"OJUELEGBA 2","81, Ojuelegba Road, Surulere. Lagos",3834,6.5096874,3.3644334
"331",331,334,"OJUELEGBA BUSINESS OFFICE","123 OJUELEGBA ROAD, SURULERE, LAGOS",5595,6.5101317,3.3616147
"332",332,335,"OKE ARIN","23, Oke Arin Street, Lagos Island, Lagos State",4182,6.4599462,3.3849422
"333",333,336,"OKE ARIN 1","20, Ijaiye Road, Off John Street, Okearin, Lagos",420,6.6327604,3.3417286
"334",334,337,"OKEARIN 3","33, ISSA WILLIAMS, OKE ARIN, LAGOS",4570,6.4600783,3.3847327
"335",335,338,"OKOKOMAIKO","29/31 Badagry Exp Way Okokomaiko, Lagos",2435,6.4665991,3.1944888
"336",336,339,"ONIPANU","135, Ikorodu Road. Onipanu, Lagos",9151,6.531888,3.367177
"337",337,340,"OREGUN","56, KUDIRAT ABIOLA WAY, OREGUN, IKEJA, LAGOS",583,6.5995233,3.3658658
"338",338,341,"OSHODI","Oshodi Apapa Express Road. Oshodi, Lagos",3179,6.5025544,3.3228477
"339",339,342,"OYIN JOLAYEMI","PLOT 1662 OYIN JOLAYEMI STREET, VICTORIA ISLAND, LAGOS",156,6.4291467,3.4262936
"340",340,343,"PALM AVENUE","20, Palm Avenue. Mushin. Lagos",649,6.536926,3.3509746
"341",341,344,"SEME BORDER","Lagos Badagry Exp. Way. Seme Border Post. Lagos",752,6.4601986,3.2306257
"342",342,345,"SIMBIAT ABIOLA RD","1, Simbiat Abiola Road, Ikeja. Lagos",6696,6.5954869,3.3384707
"343",343,347,"TINUBU","5/7 KAKAWA STR, LAGOS ISLAND. LAGOS",4451,6.4530585,3.3889939
"344",344,348,"UBA ALABA","3, Agudosi Street, Ojo-Alaba Int. Market, Lagos",3012,6.4579519,3.1901072
"345",345,349,"UBA Apapa2","27, WHARF ROAD, APAPA, LAGOS",4103,6.4454687,3.372579
"346",346,350,"UBA Festac","21, ROAD FESTAC AREA",4888,6.4701234,3.2926167
"347",347,351,"UBA HOUSE","UBA HOUSE, 35 BRD STREET,LAGOS",7143,6.4555148,3.3832573
"348",348,352,"UBA Isolo","10, ISOLO WAY ISOLO LAGOS",608,6.5280393,3.3529554
"349",349,353,"UBA Okota","OKOTA BUSINESS OFFICE",117,NA,NA
"350",350,354,"UBA TRADE FAIR COMPLEX ATIKU HALL","Atiku Abubakar Hall, Trade Fair Complex",4600,6.4605058,3.2500341
"351",351,355,"UNIVERSITY OF LAGOS, AKOKA","University of Lagos, Akoka",2867,6.515759,3.3898447
"352",352,356,"WAREHOUSE RD","11-13 WAREHOUSE RD, LAGOS",675,6.4395967,3.3696557
"353",353,357,"WESTERN AVENUE","NO. 68, WESTERN AVENUE, SURULERE, LAGOS",4290,6.5085536,3.3628635
"354",354,358,"ABUBAKAR BURGA B/O","ABUBAKAR BURGA STREET, KEFFI",9948,8.8470773,7.877736
"355",355,359,"JOS ROAD B/O","JOS ROAD, LAFIA, NASARAWA",7042,8.5060115,8.5226706
"356",356,360,"MAKAMA DOGO B/O","28, MAKAMA DOGO ROAD, NASARAWA",8197,8.4847418,8.5007116
"357",357,361,"MARABA B/O","Maraba Business Office, Nasarawa",3888,8.5474692,7.7118003
"358",358,362,"WAMBA B/O","WAMBA, WAMBA LGA",6844,40.7769271,-73.8739659
"359",359,363,"2, SULEIMAN BARAU ROAD, SULEJA","2 Suleiman Barau Road Suleja",1601,9.1910422,7.1785003
"360",360,364,"KONTAGORA B/O","KONTAGORA, NIGER STATE",8263,10.407146,5.4699173
"361",361,365,"KUTIGI B/O","KUTIGI, NIGER STATE",6253,9.1992402,5.5958657
"362",362,366,"LAPAI B/O","LAPAI, AHMADU BELLO WAY, NIGER STATE",5094,9.0864444,7.4432892
"363",363,367,"MINNA 2 B/O","MTD8 PAIKO RD, MINNA, NIGER",4941,9.5895289,6.5494555
"364",364,368,"MOKWA B/O","LAGOS - KADUNA ROAD, MOKWA",3529,6.5243793,3.3792057
"365",365,369,"NEW BUSSA B/O","IBRAHIM TAIWO RD, NEW BUSSA, NIGER STATE",5285,9.886413,4.5096872
"366",366,370,"PAIKO B/O","PAIKO ROAD, MINNA, NIGER STATE",2218,9.5895289,6.5494555
"367",367,371,"WUSHISHI B/O","BIDA-ZUNGERU ROAD, WUSHISHI",8451,9.8005348,6.1531355
"368",368,372,"191 AKARIGBO STREET, SABO, SAGAMU","191 Akarigbo Str. Sabo Sagamu",1096,6.8318725,3.6395339
"369",369,373,"473B, ABEOKUTA EXPRESS ROAD","473B, Abeokuta Express Road Lagos",2899,6.6633202,3.285643
"370",370,374,"ABEOKUTA","5 ONIKOLOBO ROAD, ABEOKUTA",9742,7.128081,3.333867
"371",371,375,"ABEOKUTA 2","67, TINUBU STREET,ITA-EKO,ABEOKUTA,OGUN STATE",1107,6.5410589,3.3629643
"372",372,376,"CANAANLAND, OTTA","KM 10, Idiroko Road, Canaanland. PMB 1040. Otta. Ogun State",6715,6.6772098,3.1673677
"373",373,377,"IJEBU –ODE","59, IBADAN ROAD, IJEBU ODE, OGUN STATE",1055,6.8318959,3.9215753
"374",374,378,"ILARO OFF OGUN POLY, ILARO","Ilaro Off, Ogun Poly, Ilaro",9122,6.8953645,3.0125674
"375",375,380,"OTTA","91, Idiroko Road, Ota. PMB 1040. Ota. Ogun State.",3912,6.682696,3.171848
"376",376,381,"REDEEMED CAMP","Redemption Camp, Lagos Ibadan Expressway, Ogun State",886,6.9235877,3.6364221
"377",377,382,"UBA AGBARA","Ilaro Road, Agbara Industrial Estate, Agbara, Ogun State",6361,6.5005732,3.0935123
"378",378,383,"ADEYEMI COLLEGE OF EDUCATION, ONDO","Adeyemi College of Education, Ondo",4672,6.9148682,5.1478144
"379",379,384,"AKURE 2","ADO/OWO ROAD, AKURE",257,7.264868,5.2162033
"380",380,385,"AKURE ALAGBAKA","Bode George St, Alagbaka Quarters, PMB 621. Akure",9283,-29.6006068,30.3794118
"381",381,386,"FUTA","AKURE/ILESHA EXPRESSWAY, AKURE, ONDO STATE",1745,7.2702449,5.1665175
"382",382,387,"ODE AYE","1, Olowu Street,Ode Aye, Okitipupa L.G. Ondo State",4480,6.5906242,4.7406887
"383",383,388,"ONDO","Agbogbo-Oke, Yaba, Ondo, PMB 583. Ondo State",5436,7.1034572,4.8474234
"384",384,389,"ORE","Okitipupa Road, Ore. Ondo State",7534,6.7319704,4.8761624
"385",385,390,"OWO RD","Great Nigeria Insurance House, Owo Rd. Ondo State",2073,7.2962059,5.6458304
"386",386,391,"COE Ilesha","COE Ilesha",1384,7.6103457,4.7096476
"387",387,392,"IREE","IKIRUN/ILA-ORANGUN ROAD, IREE, OSUN STATE",2782,7.9376777,4.7272582
"388",388,393,"LAUTECH","LAUTECH",9695,8.1700335,4.2636277
"389",389,394,"Modakeke","Modakeke",2089,7.4554641,4.5443923
"390",390,395,"OSOGBO 1","OBAFEMI AWOLOWO WAY,OPP.OSOGBO CITY HALL,CPMB 4339, IGBONA",6891,7.7809134,4.5565259
"391",391,396,"OSOGBO 2","31, OBAFEMI AWOLOWO WAY, IGBONA, OSOGBO, OSUN STATE",5542,7.7808954,4.5577276
"392",392,397,"OSU","OLD IFE / ILESA ROAD, OSU",3534,NA,NA
"393",393,398,"APATA IBADAN","Opp NNPC Depot Apata Ibadan",5296,7.3901646,3.8203688
"394",394,399,"BODIJA","42A, U/I Secretariat Road, Bodija, badan. Oyo State",7548,8.1573809,3.6146534
"395",395,400,"CHALLENGE","Challenge-Molete Road",6911,7.312944,4.2787699
"396",396,401,"DUGBE 1","5, OBAFEMI AWOLOWO WAY, J. ALLEN, DUGBE, IBADAN",7284,7.380911,3.8806941
"397",397,402,"IDI-APE JUNCTION, IWO-ROAD, IBADAN","IDI-APE JUNCTION, IWO-ROAD, IBADAN",8579,7.4079164,3.9206633
"398",398,403,"ISEYIN","Iseyin Town. Oyo State",2602,7.9764931,3.5913939
"399",399,404,"Iwo Road 1","61, IWO ROAD. OPP ARISEKOLA'S MOSQUE. IBADAN. OYO STATE",4500,7.4036414,3.931538
"400",400,405,"IWO ROAD 3","81/83, Iwo Road, Ibadan. Oyo",2189,7.4051035,3.945115
"401",401,406,"MOLETE","SW8/1137, Obafemi Awolowo Road, Molete, Ibadan. Oyo State",1439,7.35878,3.889997
"402",402,407,"NEW GBAGI","New Gbagi Market Complex, New Ife Road, Ibadan. Oyo State",9507,7.3927258,3.9549808
"403",403,408,"OGBOMOSHO","Oke Apake, Ilorin-Ogbomoso Road, Ogbomoso, Oyo State",6218,8.130821,4.2455131
"404",404,409,"OYO B/O","ODO ARO QTRS, OGBOMOSHO ROAD, OYO, OYO STATE",4121,7.8335437,3.9332585
"405",405,410,"REGIONAL OFFICE, DUGBE","Regional Office, Lebanon Street, Dugbe, Ibadan",7773,7.387351,3.8854268
"406",406,411,"SAKI B/O","Saki Business Office",4870,NA,NA
"407",407,412,"UCH, IBADAN","COLLEGE OF MEDICINE, UCH, IBADAN",4839,7.4018601,3.9020597
"408",408,413,"BEACH ROAD B/O","C-O 16-17 BEACH ROAD, JOS",4638,9.9100891,8.8919644
"409",409,414,"BOKKOS B/O","BEHIND BOKKOS LG SEC, BOKKOS",8302,9.2993816,8.9949368
"410",410,415,"KANAM B/O","JARMAI, KANAM LGA",2803,9.3515589,10.0639407
"411",411,416,"MURTALA MOHAMMED B/O","47 MURTALA MOHAMMED WAY, JOS",4780,9.9088127,8.8948194
"412",412,417,"PANKSHIN BO","PANKSHIN BO",1778,9.3191794,9.4417456
"413",413,418,"RWANG PAM B/O","JOS 3, 24/25, RWANG PAM STREET, JOS",8303,9.9220544,8.8887285
"414",414,419,"SHENDAM B/O","YELWA ROAD, PMB 11, SHENDAM",1314,8.8080314,9.6647636
"415",415,420,"Vom","Vom",1233,NA,NA
"416",416,421,"ABONNEMA","Akoko-Toru, L.G.A Abonnema. Rivers State",7870,4.7231169,6.7788461
"417",417,422,"AGGREY RD 1 (Hospital Road)","4, Hospital Road, Port Harcourt, Rivers State",2076,4.7644955,7.0191309
"418",418,423,"AGGREY RD 2","15, AGGREY ROAD Port Harcourt, Rivers State",1636,4.7618953,7.0234201
"419",419,424,"BONNY","New Finima Road, P.O. Box. 5 Bonny Island. Rivers State",8280,4.4057412,7.185319
"420",420,425,"ELELENWON GRA II","Elelenwon Gra II",7186,4.8397687,7.072702
"421",421,426,"IKWERE ROAD","73, Ikwerre Road, P/Harcourt, Rivers State",9009,4.7935309,6.9962394
"422",422,427,"ISIOKPO","PH-OWERRI ROAD, ISIOKPO, IKWERRE LGA, RIVERS STATE",9929,5.0567589,6.9235969
"423",423,428,"NAOC","NAOC, Rumueme, Port Harcourt. Rivers State.",1612,4.7996685,6.9733372
"424",424,429,"OIL MILL, P/H","312, P/H - Aba Road, Oil Mill. Rumukwurushi. P/Harcourt. River State",8403,4.818152,7.0107732
"425",425,430,"OMOKU","73, Ahoada/Okwuzi Road, P.O Box 340, Omoku, Onelga. Rivers State",6873,5.3304901,6.6520467
"426",426,431,"ONNE OFFICE","C/O 14 AZIKIWE ROAD, PORT HARCOURT, RIVERS STATE",4312,4.7806612,7.0068813
"427",427,432,"PH IKOKU B/O","32 AZIKIWE STREET, MILE 2, DIOBU, P/HARCOURT",3218,4.7974324,6.989439
"428",428,433,"PHMAIN","14, Azikiwe Road, Port Harcourt, Rivers State",2891,4.7806612,7.0068813
"429",429,434,"REFINERY RD.","Refinery Road, Eleme",9722,33.6439526,-97.1534622
"430",430,435,"RIVERS STATE SECRETARIAT COMPLEX","C/O 14, Azikiwe Road, Port Harcourt. Rivers State",1428,4.7806612,7.0068813
"431",431,436,"RSUST","Rivers State University, Nkpolu Campus. Port Harcourt",9138,4.8062066,6.9864462
"432",432,437,"RUMUOKORO","Rumuokoro",4762,4.8651134,6.9880335
"433",433,438,"RUMUOKWUTA B/O","Rumuokwuta Office",9963,4.840605,6.9920629
"434",434,439,"SHELL B/O","Shell Business Office",3961,NA,NA
"435",435,440,"SHELL INDUSTRIAL AREA, RUMUOMASI","Shell Industrial Area,Rumuomasi",2186,4.83113,7.0297198
"436",436,441,"STATION RD.","Station Road, Port Harcourt",5418,4.759412,7.0163266
"437",437,442,"TRANS AMADI","147, Trans Amadi Road. P/Harcourt. Rivers State",4259,4.8043348,7.0308328
"438",438,443,"TRANS AMADI 1","25, Trans Amadi Ind. Layout, P/H Rivers State",2681,4.8331255,7.0333996
"439",439,444,"Uniport Business Office","Uniport Shopping Complex, Choba, Uniport, Port Harcourt",5021,4.90034,6.9211125
"440",440,445,"SOKOTO ALIYU JODI B/O","ALIYU JODI ROAD, SOKOTO",7054,13.0058731,5.2475518
"441",441,446,"SOKOTO KRB 1","NO 1 KANO ROAD, SOKOTO",1544,13.0058731,5.2475518
"442",442,447,"SOKOTO KRB 2","10, KANO ROAD, SOKOTO",7308,13.0058731,5.2475518
"443",443,448,"HAMMARUWA WAY BO","134, HAMMARUWA WAY , JALINGO",1426,8.8928524,11.3771496
"444",444,449,"HAMMARUWA WAY BO 2.","25, HAMMARUWA WAY , JALINGO",8220,8.8928524,11.3771496
"445",445,450,"Mayo Selbe","Mayo-Selbe Road",4067,7.2837609,11.13243
"446",446,451,"MUTUN BIYU","Mutun Biyu",9435,8.6450352,10.7718025
"447",447,452,"SARDAUNA B/O 1","NEAR MOTOR PARK, SARDAUNA L.G.A",2612,6.8734491,11.2523792
"448",448,453,"SARDAUNA B/O 2","2, AHMADU BELLO WAY, SARDAUNA LGA",5565,6.7108956,11.2555449
"449",449,454,"TAKUM B/O","Takum Business Office",2193,7.2576942,9.9744535
"450",450,455,"TURAKI WARD BO","34 BaRoade Way Turaki WaRoad Jalingo",2768,8.8928524,11.3771496
"451",451,456,"WUKARI B/O","Wukari Business Office",2386,7.9303125,9.8124935
"452",452,457,"ABBA IBRAHIM B/O","10 BURKA ABBA IBRAHIM DAMATURU",4531,11.7469961,11.9661922
"453",453,458,"GUJBA B/O","1, KASHIM IBRAHIM WAY, GUJBA ROAD, DAMATURU",9703,11.7469961,11.9661922
"454",454,459,"GUSAU 1","1, GOVT. HOUSE RD S.ABACHA WAY GUSAU",588,12.1628466,6.6745042
"455",455,460,"UBA GUSAU 2, CANTEEN AREA","NO 2, CANTEEN AREA,GUSAU-NIGERIA",4913,12.1628466,6.6745042
